ISO,NAME,LON,LAT
aas,Aasáx,36.86477,-4.00679
aat,Arvanitika Albanian,23.37034,38.28299
aau,Abau,141.32359,-3.97222
aaw,Solong,148.82509,-5.86129
aax,Mandobo Atas,140.62376,-5.69357
aaz,Amarasi,123.96373,-10.21751
aba,Abé,-4.38497,5.59682
abb,Bankon,9.6403,4.3702
abc,Ambala Ayta,120.28339,14.81558
abd,Camarines Norte Agta,122.83497,14.15712
abe,Western Abnaki,-72.65106,46.13812
abf,Abai Sungai,118.30626,5.55394
abg,Abaga,145.66459,-6.12028
abh,Tajiki Spoken Arabic,66.50338,37.0893
abi,Abidji,-4.58421,5.65656
abk,Abkhaz,40.78113,43.29399
abl,Abung,105.39652,-4.43957
abm,Abanyom,8.63055,6.30619
abn,Abua,6.61492,4.83057
abo,Abon,10.87689,6.90621
abp,Abenlen Ayta,120.20036,15.41314
abq,Abaza,41.88768,44.23956
abr,Abron,-1.97397,7.65599
abs,Ambonese Malay,128.18442,-3.71342
abt,Ambulas,143.05898,-3.7801
abu,Abure,-3.64123,5.21534
arb,Standard Arabic,40.79884,23.70631
abw,Pal,145.24044,-4.756
abx,Inabaknon,124.16645,12.42636
aby,Aneme Wake,148.47891,-9.75911
abz,Abui,124.58793,-8.31058
aca,Achagua,-72.2005,4.38649
acb,Áncá,11.10872,6.66524
acc,Cubulco Achí,-90.70695,15.17421
acd,Gikyode,0.56975,8.39478
abj,Aka-Bea,92.78178,12.37822
acf,Saint Lucian Creole French,-60.97418,13.88269
aaa,Ghotuo,5.95663,7.11551
aab,Alumu-Tesu,8.55956,9.01513
aac,Ari,142.40045,-7.95526
aad,Amal,141.9952,-4.04517
aae,Arbëreshë Albanian,16.71645,38.91104
aaf,Aranadan,75.79538,11.35252
aai,Arifama-Miniafia,149.24638,-9.15565
aak,Ankave,145.75421,-7.19444
aal,Afade,14.60874,12.05214
aam,Aramanik,37.3491,-2.90656
aan,Anambé,-49.30296,-2.71119
aao,Algerian Saharan Spoken Arabic,1.61694,24.65311
aap,Pará Arára,-53.06572,-3.71263
aaq,Eastern Abnaki,-68.66167,45.01121
aay,Aariya,81.19373,23.22873
acv,Achumawi,-121.1908,41.09785
aci,Aka-Cari,92.94855,13.49086
ack,Aka-Kora,92.74663,12.09437
acl,Akar-Bale,92.82775,12.66632
acm,Mesopotamian Spoken Arabic,46.05532,31.89232
acn,Achang,97.81802,24.4344
ach,Acholi,32.67602,3.17234
acq,Ta'izzi-Adeni Spoken Arabic,45.64107,13.65547
acr,Rabinal Achí,-90.35134,15.07303
acs,Acroa,-40.21445,-12.594
act,Achterhoeks,6.47521,52.02104
acu,Achuar-Shiwiar,-77.27207,-3.2503
acw,Hijazi Spoken Arabic,38.92371,22.8346
acx,Omani Spoken Arabic,57.70295,23.23657
acy,Cypriot Spoken Arabic,33.0943,35.16744
acz,Acheron,30.3187,10.88266
adr,Adonara,123.15864,-8.32027
adb,Adabe,125.57573,-8.22674
add,Dzodinka,10.89556,6.7039
ade,Adele,0.73376,8.19117
adf,Dhofari Spoken Arabic,54.48936,17.07958
adg,Andegerebinha,137.3515,-22.51278
adh,Adhola,34.03408,0.73235
adi,Adi,94.3538,27.62812
adj,Adioukrou,-4.52522,5.38228
adl,Galo Adi,96.311,27.749
adn,Adang,124.44812,-8.18958
ado,Abu,144.47396,-4.24027
adp,Adap,90.33693,27.14102
adq,Adangbe,0.76327,6.36989
ads,Adamorobe Sign Language,-0.151,5.834
adt,Adynyamathanha,138.67131,-30.14508
adu,Aduge,6.13085,7.64567
adw,Amundava,-62.30645,-9.04023
adx,Amdo Tibetan,100.48479,34.51768
ady,Adyghe,39.70165,45.06076
aea,Areba,142.63107,-16.63548
aeb,Tunisian Spoken Arabic,9.56156,33.79658
aec,Sa‘idi Spoken Arabic,30.53016,25.41322
aed,Argentine Sign Language,-59.17984,-34.79695
aee,Northeast Pashayi,70.43166,34.66002
aek,Haeke,164.86922,-21.0735
ael,Ambele,9.62028,5.94043
aem,Arem,106.40279,17.37985
aen,Armenian Sign Language,44.47668,40.10023
aeq,Aer,69.029,25.254
aer,Eastern Arrernte,135.04638,-23.35831
aes,Alsea,-123.94,44.408
aew,Ambakich,144.28479,-4.23181
aex,Amerax,-74.33219,40.75433
pqa,Pa'a,9.30091,11.01752
afb,Gulf Spoken Arabic,47.98677,30.18616
afe,Putukwam,8.96041,6.65923
abv,Baharna Spoken Arabic,50.5521,25.94204
afi,Akrukay,144.82082,-4.88687
afr,Afrikaans,21.61887,-30.62109
afn,Defaka,7.50186,4.58451
afo,Eloyi,7.97061,8.24696
aar,Afar,41.08778,11.83353
afs,Afro-Seminole Creole,-96.57611,35.18634
aft,Afitti,30.76112,12.44598
afu,Awutu,-0.59545,5.42441
afz,Obokuitai,137.92395,-2.88029
aga,Aguano,-75.83332,-5.25
agb,Legbo,7.98385,6.02645
agc,Agatu,7.71639,7.97915
agd,Agarabi,145.91695,-6.20604
age,Angal,143.59198,-6.0127
agf,Arguni,132.54182,-2.66787
agg,Angor,141.19901,-3.7167
agh,Ngelima,24.87538,1.81314
agi,Agariya,82.29701,24.50242
agj,Argobba,39.75603,10.65965
agk,Isarog Agta,123.33243,13.65101
agl,Fembe,142.25411,-5.71596
agm,Angaatiha,146.35192,-7.15012
agn,Agutaynen,119.65546,10.53279
ago,Tainae,145.68228,-7.40306
agp,Paranan,122.37028,17.04111
agq,Aghem,10.08074,6.38956
agr,Aguaruna,-77.92179,-5.30044
ags,Esimbi,9.86936,6.50094
agt,Central Cagayan Agta,121.85716,17.95709
agu,Aguacateco,-91.31529,15.33066
agv,Remontado Agta,121.45323,14.62541
agw,Kahua,162.19059,-10.69634
agx,Aghul,47.58429,41.92418
agy,Southern Alta,121.05413,15.18409
agz,Mt. Iriga Agta,123.4625,13.45657
aha,Ahanta,-1.94657,4.85147
ahb,Axamb,167.70701,-16.48376
ahe,Ahe,113.743,0.068
ahh,Aghu,140.04303,-6.34674
ahi,Tiagbamrin Aizi,-4.62352,5.28022
ahl,Igo,0.67846,7.25499
ahm,Mobumrin Aizi,-4.47303,5.26847
ahn,Àhàn,6.00896,7.44139
aho,Ahom,88.46401,27.27784
ahp,Aproumu Aizi,-4.52192,5.20273
ahr,Ahirani,73.685,21.552
ahs,Ashe,7.39443,9.36574
aht,Ahtena,-144.88894,61.70684
aia,Arosi,161.43153,-10.24414
aib,Ainu,76.42088,39.27141
aic,Ainbai,141.14867,-3.09214
aid,Alngith,141.93798,-12.53236
aie,Amara,148.68005,-5.55778
aif,Agi,142.38677,-3.49104
aig,Antigua and Barbuda Creole English,-61.78942,17.0805
aih,Ai-Cham,107.84359,25.49083
aii,Assyrian Neo-Aramaic,43.50269,37.09724
aij,Lishanid Noshan,35.51134,32.45782
aik,Ake,8.75768,8.59543
ail,Aimele,142.65551,-6.68656
aim,Aimol,94.35562,24.64368
ain,Ainu,142.87464,43.05529
aio,Aiton,92.3169,26.51452
aip,Burumakok,140.03004,-5.12217
aiq,Aimaq,64.62116,34.27009
air,Airoran,138.15778,-1.8522
ais,Nataoran Amis,121.59005,23.93858
ait,Arikem,-63.742,-8.924
aiy,Ali,18.03518,4.60014
aiz,Aari,36.57211,5.95034
aja,Aja,25.61221,8.58003
ajg,Aja,1.77879,7.00083
aji,Ajië,165.46767,-21.30289
ajp,South Levantine Spoken Arabic,35.78394,31.43032
ajt,Judeo-Tunisian Arabic,34.89403,31.73193
aju,Judeo-Moroccan Arabic,34.85522,31.82429
ajw,Ajawa,9.89205,10.21005
ajz,Amri,91.482,26.024
axx,Xaragure,166.37571,-21.8223
arh,Arhuaco,-73.63629,10.70184
ari,Arikara,-102.28279,47.51965
arj,Arapaso,-67.72816,0.13727
ark,Arikapú,-62.7261,-12.48782
arl,Arabela,-75.06117,-1.96126
hye,Armenian,45.0399,40.40121
ahk,Akha,100.10188,20.9276
akb,Batak Angkola,99.60248,1.66127
akc,Mpur,133.16598,-0.7489
akd,Ukpet-Ehom,8.10047,5.58316
akf,Akpa,8.01629,7.32586
akg,Anakalangu,119.60465,-9.63425
akh,Angal Heneng,143.47808,-6.13347
aki,Aiome,144.76523,-5.13467
akj,Aka-Jeru,92.95043,13.15249
aqg,Arigidi,5.89556,7.56324
akl,Aklanon,122.35413,11.55432
akm,Aka-Bo,92.80108,12.36294
akn,Amikoana,-51.67454,2.55741
ako,Akurio,-55.6294,3.19607
akp,Siwu,0.44362,7.23811
akq,Ak,141.78374,-3.57026
akr,Araki,166.94246,-15.63141
aks,Akaselem,1.37035,8.8858
akt,Akolet,150.18199,-6.22711
aku,Akum,9.98971,6.84099
akv,Akhvakh,46.30369,42.40035
akw,Akwa,15.46226,-0.39897
akx,Aka-Kede,92.82266,12.84943
aky,Aka-Kol,92.78661,12.73253
akz,Alabama,-94.62848,30.76738
ala,Alago,8.52085,8.34986
alw,Alaba,38.17316,7.39014
alc,Qawasqar,-75.3756,-49.70303
ald,Alladian,-4.42647,5.22371
aqp,Atakapa,-93.08271,30.91207
alf,Alege,9.00394,6.59423
alq,Algonquin,-77.52577,47.38755
alh,Alawa,134.28162,-15.54581
ali,Amaimon,145.36845,-5.18742
alj,Alangan,121.02197,13.09821
alk,Alak,106.59719,15.5565
all,Allar,76.65928,11.08031
alm,Amblong,166.94988,-15.51691
aln,Gheg Albanian,20.8701,42.61581
alo,Larike-Wakasihu,127.95608,-3.76522
alp,Alune,128.39386,-3.11477
alr,Alutor,165.65285,60.38443
als,Tosk Albanian,20.17993,39.84682
alt,Southern Altai,86.87051,50.13472
alu,'Are'are,161.15822,-9.20699
ami,Amis,121.34791,23.09172
ale,Aleut,-174.29013,52.12283
alx,Alatil,142.53207,-3.46843
aly,Alyawarr,136.83489,-21.04266
alz,Alur,30.8289,2.28824
ama,Amanayé,-48.66126,-3.79772
amb,Ambo,10.77978,7.07637
amc,Amahuaca,-72.71614,-10.49463
amd,Amapá Creole,-51.05775,0.14065
ame,Yanesha',-75.31497,-10.54539
amf,Hamer-Banna,36.51761,5.06515
amg,Amarag,132.87768,-11.98757
amh,Amharic,37.93657,11.77861
aey,Amele,145.68676,-5.29126
amj,Amdang,21.31208,14.51149
amk,Ambai,136.52587,-1.88126
aml,War,91.99736,24.38823
amm,Ama,141.65793,-4.20192
amn,Amanab,141.17783,-3.51516
amo,Amo,8.65405,10.32287
amp,Alamblak,143.31576,-4.66307
amq,Amahai,128.93888,-3.32028
amr,Amarakaeri,-70.55333,-12.49308
ams,Southern Amami-Oshima,129.28521,28.1955
amt,Amto,141.33941,-4.12165
amu,Guerrero Amuzgo,-98.18953,16.77226
amv,Ambelau,127.1964,-3.85919
amw,Western Neo-Aramaic,36.48403,33.81622
amx,Anmatyerre,133.28584,-22.28531
amy,Ami,130.0399,-13.55727
amz,Atampaya,142.2726,-11.0018
ana,Andaqui,-75.99999,2.74999
anb,Andoa,-76.60558,-3.29664
anc,Ngas,9.46146,9.32042
and,Ansus,135.86627,-1.7543
ane,Xârâcùù,165.99607,-21.70338
anf,Animere,0.41962,7.60385
kkn,Kon Keu,100.27835,21.63694
anh,Nend,144.88584,-5.04271
ani,Andi,46.29187,42.80785
anj,Anor,144.80097,-4.98449
ank,Goemai,9.72453,8.74455
anl,Anu,98.5945,23.33942
anm,Anal,94.14349,24.0492
ann,Obolo,7.81985,4.62851
ano,Andoque,-72.08686,-0.53751
anp,Angika,87.12597,24.33037
anq,Jarawa,92.65803,11.60889
anr,Andh,77.71561,19.47335
ans,Anserma,-76.04999,6.24999
ant,Antakarinya,134.83783,-27.11522
anu,Anuak,33.6473,7.5675
anv,Denya,9.39989,5.97237
anw,Anaang,7.57969,4.94832
anx,Andra-Hus,147.08493,-2.05894
any,Anyin,-3.76951,6.79773
anz,Anem,148.99315,-5.54836
aoa,Angolar,6.59486,0.11438
aob,Abom,142.84233,-8.42448
aoc,Pemon,-62.03638,5.29
aod,Andarum,144.76673,-4.48734
aoe,Angal Enen,143.58326,-6.23296
aof,Bragat,142.49451,-3.48707
aog,Angoram,144.02814,-4.07758
aoh,Arma,-75.99999,2.03332
aoi,Anindilyakwa,136.6415,-13.99904
aoj,Mufian,142.95453,-3.57932
aok,Arhö,165.16057,-21.31834
aol,Alor,124.26377,-8.20382
aom,Ömie,148.10712,-9.03136
aon,Bumbita Arapesh,142.8592,-3.65508
aor,Aore,167.16614,-15.57526
aos,Taikat,140.7495,-2.9408
aot,Atong,92.707,26.354
aox,Atorada,-59.014,2.793
aoz,Uab Meto,124.14365,-9.77284
apy,Apalaí,-54.7457,1.49792
apb,Sa'a,161.46689,-9.60258
apc,North Levantine Spoken Arabic,36.63659,33.43367
apd,Sudanese Spoken Arabic,29.3414,15.69465
ape,Bukiyip,143.11061,-3.47169
apg,Ampanang,116.34896,-0.79259
aph,Athpariya,87.32958,26.87944
api,Apiacá,-57.91002,-7.84711
apj,Jicarilla Apache,-107.00694,36.8079
apk,Kiowa Apache,-98.24612,34.90771
apl,Lipan Apache,-105.81939,33.27479
apm,Mescalero-Chiricahua Apache,-105.56612,33.1291
apn,Apinayé,-47.63153,-6.10774
app,Apma,168.18897,-15.85593
apq,A-Pucikwar,92.79646,12.24101
apr,Arop-Lukep,147.10339,-5.31671
aps,Arop-Sissano,142.11955,-3.06984
apt,Apatani,93.72844,27.19331
apu,Apurinã,-66.77141,-8.21692
apw,Western Apache,-110.12264,33.85743
apx,Aputai,126.4958,-7.84732
apz,Safeyoka,146.08961,-7.05417
aqm,Atohwaim,138.66621,-6.27123
aqn,Northern Alta,121.45394,15.6913
aru,Arua,-47.21818,-22.48633
ake,Akawaio,-60.61405,6.08065
aqc,Archi,46.82673,42.3239
ard,Arabana,135.44893,-28.70501
are,Western Arrarnta,133.24621,-24.05052
arf,Arafundi,143.63712,-4.96449
aqr,Arhâ,165.27269,-21.28665
aro,Araona,-67.72934,-12.42423
arp,Arapaho,-108.80964,43.38792
arq,Algerian Spoken Arabic,3.23033,35.42078
arr,Karo,-61.56908,-10.33424
ars,Najdi Spoken Arabic,43.90639,23.55493
rkb,Rikbaktsa,-58.19424,-11.18865
arn,Mapudungun,-72.18261,-38.43638
arv,Arbore,36.79861,4.92183
arw,Arawak,-55.08124,5.49124
arx,Aruá,-62.43568,-12.11857
ary,Moroccan Spoken Arabic,-6.95087,33.21392
arz,Egyptian Spoken Arabic,31.0735,30.76099
bhk,Albay Bicolano,123.48979,13.19891
bhl,Bimin,142.04036,-5.38732
bhm,Bathari,50.23,16.936
bhn,Bohtan Neo-Aramaic,45.083,41.471
bfi,British Sign Language,-0.4431,51.66878
bhp,Bima,118.44507,-8.57376
bhq,Tukang Besi South,123.94804,-5.7478
bhr,Bara Malagasy,45.59374,-23.97158
bhs,Buwal,13.88377,10.61513
bht,Bhattiyali,76.03107,32.40218
bhu,Bhunjia,83.16136,21.27608
bhv,Bahau,115.33208,0.30801
bhw,Biak,135.87917,-0.9523
bhx,Bhalay,77.82676,21.2665
bhz,Bada,120.31922,-1.80249
bia,Badimaya,117.2464,-29.0647
bib,Bissa,-0.46336,11.45787
bic,Bikaru,142.94523,-4.86
bid,Bidiyo,18.80649,11.92036
bie,Bepour,145.44168,-4.5985
bif,Biafada,-15.13467,11.46701
big,Biangai,146.76483,-7.33882
bii,Bisu,100.21341,21.95752
bij,Vaghat-Ya-Bijim-Legeri,9.56547,9.64648
bpr,Koronadal Blaan,125.00664,6.20529
bil,Bile,11.19066,8.90052
bim,Bimoba,0.06121,10.45746
bpj,Binji,22.79148,-4.67791
bio,Nai,141.27254,-3.73034
asa,Asu,37.83226,-4.17978
asb,Assiniboine,-103.5346,50.27022
asc,Casuarina Coast Asmat,138.56574,-6.43005
asd,Asas,145.54869,-5.69345
ase,American Sign Language,-78.3436,39.83135
asf,Australian Sign Language,145.87165,-37.56293
asg,Cishingini,4.48564,9.88458
ash,Abishira,-75.21832,-0.69386
asi,Buruwai,133.32748,-3.54561
asj,Nsari,10.59934,6.63008
ask,Ashkun,70.37453,34.84277
asl,Asilulu,127.9523,-3.67302
asm,Assamese,92.82779,26.25411
asn,Xingú Asuriní,-52.32101,-4.13463
aso,Dano,145.2539,-5.92188
asp,Algerian Sign Language,3.5462,36.4762
asq,Austrian Sign Language,16.22499,48.11967
asr,Asuri,83.45622,21.57205
ass,Ipulo,9.64676,6.2918
cns,Central Asmat,138.47107,-5.80391
asu,Asuriní,-49.89913,-3.59359
asv,Asoa,26.71977,2.26818
asw,Australian Aborigines Sign Language,136.301,-12.73709
asx,Muratayak,146.53995,-5.74416
asy,Yaosakor Asmat,138.5822,-5.61024
asz,As,131.72762,-0.75267
ata,Pele-Ata,151.05018,-5.58045
atb,Zaiwa,98.34479,24.44678
atc,Atsahuaca,-69.49999,-14.16665
atd,Ata Manobo,125.4992,7.7789
ate,Atemble,144.80568,-5.08137
atf,Atuence,99.2338,28.53222
atg,Ivbie North-Okpela-Arhe,6.21209,7.15307
azt,Faire Atta,121.43626,17.98083
ati,Attié,-3.8209,5.9977
ace,Aceh,96.60325,3.90757
atk,Ati,122.51179,11.15394
atl,Mt. Iraya Agta,123.55216,13.4588
atm,Ata,122.9,9.715
atn,Ashtiani,48.68083,37.74693
ato,Atong,9.72121,6.03539
atp,Pudtol Atta,121.37861,18.21116
atq,Aralle-Tabulahan,119.3193,-2.78397
atr,Atruahí,-60.42595,-0.61832
ats,Gros Ventre,-108.73841,48.48341
att,Pamplona Atta,121.29955,18.47381
atu,Reel,30.49451,6.32234
atv,Northern Altai,88.06722,50.89984
atw,Atsugewi,-120.66125,40.42711
atx,Arutani,-63.08958,3.62796
aty,Aneityum,169.82523,-20.18636
atz,Arta,121.65618,16.41851
aua,Asumboa,166.49868,-11.29693
ast,Asturian,-5.77354,43.33711
auc,Waorani,-76.68295,-1.12312
aud,Anuta,162.24094,-10.75959
aue,‡Kx'au//'ein,20.57317,-21.29527
aug,Aguna,1.74452,7.49256
auh,Aushi,29.41937,-11.08795
aui,Anuki,149.82236,-9.6692
auj,Awjilah,21.18188,29.23411
auk,Heyo,142.47056,-3.83003
aul,Aulua,167.69684,-16.35787
aum,Asu,5.42081,10.08494
aun,Molmo One,141.80584,-3.38127
auo,Auyokawa,11.32197,9.85747
aup,Makayam,142.70555,-8.37312
auq,Anus,139.50194,-2.26271
aur,Aruek,142.71539,-3.37841
avs,Aushiri,-74.54111,-3.3196
aut,Austral,-149.46195,-23.38431
auu,Auye,136.09604,-3.43705
auv,Auvergnat,3.48406,45.23916
auw,Awyi,140.60389,-3.00564
aux,Aurá,-46.792,-4.137
auy,Awiyaana,145.75972,-6.54079
auz,Uzbeki Spoken Arabic,65.38644,40.26116
avn,Avatime,0.41314,6.8688
avb,Avau,150.42742,-6.24342
avd,Alviri-Vidari,50.37939,35.00753
hvk,Haveke,164.75333,-21.02488
avi,Avikam,-5.2529,5.15838
avl,Eastern Egyptian Bedawi Spoken Arabic,33.61126,29.67415
avo,Agavotaguerra,-53.43936,-13.29849
ava,Avar,46.56284,42.42226
ave,Avestan,53.633,31.541
avt,Au,142.1046,-3.53277
avu,Avokaya,29.99855,4.82505
avv,Avá-Canoeiro,-48.13356,-13.60814
acp,Eastern Acipa,6.0105,10.71038
awb,Awa,145.71416,-6.65534
awc,Western Acipa,5.54073,11.04175
awa,Awadhi,81.87432,27.56373
awe,Awetí,-53.58519,-12.93358
awh,Awbono,139.72441,-5.05875
awi,Aekyom,141.53229,-5.88478
awk,Awabakal,151.43555,-33.12847
awm,Arawum,145.90317,-5.52787
awn,Awngi,36.69164,10.98191
awo,Awak,11.32906,9.86334
awr,Awera,136.06341,-2.71886
aws,South Awyu,139.53808,-7.36301
awt,Araweté,-52.50009,-4.90246
awu,Central Awyu,139.69256,-6.29363
awv,Jair Awyu,140.1037,-6.79732
aww,Awun,141.99886,-3.79671
awx,Awara,146.37187,-6.16986
awy,Edera Awyu,139.91413,-7.0038
axb,Abipon,-65.863,-35.962
axg,Mato Grosso Arara,-55.869,-13.175
axk,Yaka,17.2713,3.6515
arg,Aragonese,-0.00919,42.46695
aya,Awar,144.83607,-4.13554
ayb,Ayizo Gbe,2.20552,6.62654
ayc,Southern Aymara,-70.34424,-17.14171
ayd,Ayabadhu,142.89347,-14.66524
aye,Ayere,6.01979,7.52206
ayg,Ginyanga,0.98348,8.2327
ayh,Hadrami Spoken Arabic,48.65241,15.44676
ayi,Leyigha,8.20861,5.98832
ayk,Akuku,6.34264,7.40354
ayl,Libyan Spoken Arabic,17.27292,28.64352
ayr,Central Aymara,-68.31289,-18.10344
ayn,Sanaani Spoken Arabic,44.84118,15.65517
ayo,Ayoreo,-59.57716,-20.44264
ayp,North Mesopotamian Spoken Arabic,43.64038,34.71398
ayq,Ayi,142.40679,-3.95946
ays,Sorsogon Ayta,124.16469,13.04255
ayt,Bataan Ayta,120.48961,14.41534
ayu,Ayu,8.60225,9.2634
ayx,Ayi,98.86843,27.12131
ayy,Tayabas Ayta,121.29319,16.31714
ayz,Mai Brat,132.59118,-1.3679
azb,South Azerbaijani,47.66945,37.8734
azj,North Azerbaijani,47.68707,40.2128
azg,San Pedro Amuzgos Amuzgo,-98.04643,16.51976
azm,Ipalapa Amuzgo,-98.01287,16.50531
azo,Awing,10.26405,5.88362
azr,Adzera,146.29442,-6.39394
azz,Highland Puebla Nahuatl,-97.55562,20.15536
bas,Basaa,10.42135,3.80765
bab,Bainouk-Gunyuno,-16.05858,12.31277
bac,Badui,106.17663,-6.35359
ert,Eritai,138.05252,-2.71182
bae,Bare,-66.82799,1.91649
baf,Nubaca,11.02897,4.35696
bag,Tuki,11.53531,4.64348
bah,Bahamas Creole English,-78.08002,24.76289
bwi,Baniwa,-68.15117,1.44306
baj,Barakai,134.67109,-6.7394
bjw,Bakwé,-6.51077,5.23123
mbf,Baba Malay,103.87905,1.31125
bcy,Bacama,12.04157,9.53072
ybb,Yemba,10.0214,5.47421
bao,Waimaha,-70.39047,0.21763
bap,Bantawa,87.04738,27.12147
baa,Babatana,157.14937,-7.22281
bar,Bavarian,13.25656,47.81682
bsq,Bassa,-9.84931,6.08376
bei,Bekati',109.57641,1.3307
bau,Bada,10.21664,9.42456
bav,Vengo,10.41372,6.11403
baw,Bambili-Bambui,10.22335,6.10821
bax,Bamun,10.84772,5.49017
bay,Batuley,134.78651,-5.74908
baz,Tunen,10.54559,4.67724
bba,Baatonum,2.68751,9.94229
bbc,Batak Toba,99.17614,2.35498
bbd,Bau,145.61147,-5.26465
bbe,Bangba,28.31376,3.39956
bbf,Baibai,141.34536,-3.42672
bbg,Barama,10.6777,-2.49659
bbh,Bugan,104.96286,23.61242
bbi,Barombi,9.25261,4.64584
bbj,Ghomálá',10.35202,5.39619
bbk,Babanki,10.28692,5.97863
bbl,Bats,45.34397,42.1806
bbm,Babango,23.58512,1.79475
bbn,Uneapa,149.14064,-4.89383
bbo,Northern Bobo Madaré,-4.36323,12.42396
bbp,West Central Banda,20.45107,5.98417
bbq,Bamali,10.45671,5.91327
bbr,Girawa,145.42332,-5.35342
bbs,Bakpinka,8.26321,5.26756
bbt,Mburku,9.81365,10.92756
bbu,Kulung,11.04651,9.20815
bbv,Karnai,147.91685,-5.74133
bbw,Baba,10.52159,6.11222
bbx,Bubia,9.22304,4.02178
bby,Befang,10.03422,6.27562
bbz,Babalia Creole Arabic,16.69248,12.76174
bcb,Bainouk-Samik,-15.99689,12.5053
bcc,Southern Balochi,64.33913,26.04562
bcd,North Babar,129.74277,-7.84311
bce,Bamenyam,10.33016,5.77049
bcf,Bamu,143.54524,-7.93818
bcg,Baga Binari,-14.61106,10.52708
bch,Bariai,148.66608,-5.5087
bci,Baoulé,-4.76565,5.42509
bcj,Bardi,122.90561,-16.62743
bck,Bunaba,125.63098,-17.82967
aix,Aigon,150.27247,-5.99488
bcm,Bannoni,155.12771,-6.23061
bcn,Bali,11.29518,8.81345
bco,Kaluli,142.78806,-6.45932
bcp,Bali,26.59406,1.1807
bcq,Bench,35.7673,7.04682
bcr,Babine,-126.41041,55.09968
bcs,Kohumono,7.96202,5.92596
bct,Bendi,30.36789,2.20229
bcu,Awad Bing,146.35521,-5.59896
bcv,Shoo-Minda-Nye,10.96424,8.92577
bcw,Bana,13.61308,10.35353
bcx,Pamona,121.26817,-1.62663
bis,Bislama,168.29681,-17.7209
bcz,Bainouk-Gunyaamolo,-16.0806,12.54318
bda,Bayot,-16.35691,12.45645
bdb,Basap,117.94191,1.41405
bdc,Emberá-Baudó,-77.1533,5.23658
bdd,Bunama,151.06647,-10.07609
bde,Bade,10.65567,12.78899
bdg,Bonggi,117.17448,7.29249
bdh,Baka,29.70084,4.76584
bdi,Burun,33.92099,10.72505
bdj,Bai,26.48246,7.57221
bdk,Budukh,48.33533,41.22722
bdl,Indonesian Bajau,122.25334,-3.68664
bdm,Buduma,14.55587,13.37636
bdn,Baldemu,14.46735,10.90776
bdo,Bernde,17.64653,12.14611
bdp,Bende,30.59255,-6.22082
bdq,Bahnar,108.47084,14.04764
bdr,West Coast Bajau,116.12438,6.00631
bds,Burunge,35.96295,-5.21369
bdt,Bokoto,16.67208,4.75111
bdu,Oroko,9.15209,4.89504
bdv,Bodo Parja,82.87742,19.0745
bdw,Baham,132.63746,-3.10628
bdy,Bandjalang,152.85886,-28.34583
bdz,Badeshi,72.68225,35.2655
bea,Beaver,-120.35198,56.79842
beb,Bebele,12.82397,4.78874
bec,Iceve-Maci,9.50858,6.30667
bed,Bedoanas,132.56583,-2.74438
bee,Byangsi,80.447,29.883
bef,Benabena,145.53446,-6.09974
beg,Belait,114.93293,4.96207
beh,Biali,1.04245,10.7758
bej,Bedawi,35.80868,18.7757
beq,Beembe,14.10001,-3.95895
bek,Bebeli,150.32311,-5.63282
blc,Bella Coola,-126.68948,52.34481
bem,Bemba,30.5619,-10.11841
bng,Benga,9.4273,1.1972
beo,Beami,142.50775,-6.14949
bep,Besoa,120.37876,-1.60095
bkl,Berik,138.8659,-2.26904
bes,Besme,16.09382,9.59226
bet,Guiberoua Béte,-6.51291,6.13837
beu,Blagar,124.25117,-8.31787
bev,Daloa Bété,-6.63944,6.69281
bew,Betawi,107.02181,-6.21174
bex,Jur Modo,29.97403,6.03321
bey,Beli,142.33994,-3.67881
bez,Bena,35.03643,-9.26671
bfa,Bari,31.13922,4.74728
bfb,Pauri Bareli,74.337,21.228
bfc,Northern Bai,99.656,26.925
bfd,Bafut,10.11939,6.14153
bfe,Betaf,139.25538,-2.12422
bff,Bofi,17.30319,4.02043
bfg,Busang Kayan,115.40134,0.03494
bfs,Southern Bai,100.289,25.519
bca,Central Bai,99.70522,26.1666
bfj,Bafanji,10.45179,5.84612
bbb,Barai,147.89923,-9.46246
bfl,Banda-Ndélé,21.79831,8.05833
bfm,Mmen,10.25411,6.43213
bfo,Malba Birifor,-2.90623,9.78465
bfp,Beba,9.73577,6.32256
bfq,Badaga,76.59736,11.30938
bfr,Bazigar,77.22129,25.29769
bra,Braj Bhasha,78.08125,26.4758
bft,Balti,76.01403,35.15006
bfu,Gahri,77.01567,32.63756
bfw,Bondo,83.81415,19.15124
bfy,Bagheli,87.55073,22.86126
bfz,Mahasu Pahari,77.53166,31.00883
bga,Gwamhi-Wuri,5.07897,11.8081
bgb,Bobongko,121.92193,-0.36759
bgc,Haryanvi,76.0432,29.01658
bgd,Rathwi Bareli,74.99576,21.43752
bge,Bauria,75.87131,25.29769
bgf,Bangandu,15.32044,2.23863
bgg,Bugun,92.367,27.204
bgh,Bogan,101.438,24.512
bgi,Giangan,125.3591,6.99967
bgj,Bangolan,10.66697,6.0125
bgk,Bit,102.03513,21.44574
bgl,Bo,104.95342,18.18657
bgm,Baga Mboteni,-12.07358,12.27246
bgn,Western Balochi,64.06447,28.05372
bgo,Baga Koga,-13.94696,10.12862
bgp,Eastern Balochi,68.80377,28.80273
bgq,Bagri,74.05897,29.60153
bgr,Bawm Chin,93.10768,22.31508
bgs,Tagabawa,125.17494,6.9712
bgt,Bughotu,159.80177,-8.47948
bgu,Mbongno,11.13165,6.82543
bgv,Warkay-Bipim,138.63752,-5.7716
bgw,Bhatri,82.24055,19.26078
bgx,Balkan Gagauz Turkish,26.65364,41.06579
bgy,Benggoi,130.09068,-3.13924
bgz,Banggai,123.17079,-1.58305
bha,Bharia,83.10707,22.34293
bhb,Bhili,73.95923,20.84998
bhc,Biga,130.27208,-1.99574
bhd,Bhadrawahi,75.87067,33.28509
bhe,Bhaya,69.31,25.482
bhf,Odiai,141.33615,-3.82276
bhg,Binandere,147.88438,-8.37433
bhh,Bukharic,34.56394,31.48545
bhi,Bhilali,74.59014,22.58346
bho,Bhojpuri,84.48966,25.84574
bip,Bila,28.76265,1.16839
biq,Bipi,146.39801,-2.11115
bir,Bisorio,143.21255,-4.77763
bps,Sarangani Blaan,125.35373,6.03691
bit,Berinomo,142.46278,-4.41689
biu,Biete,73.65129,21.4452
biv,Southern Birifor,-2.61071,9.27512
biw,Kol,12.8574,3.65994
bix,Bijori,84.1907,22.59038
biy,Birhor,85.56115,23.585
biz,Baloi,18.12661,0.93777
bja,Budza,22.61069,2.19951
bjb,Banggarla,136.0792,-33.30362
bjc,Bariji,148.45354,-9.231
bjd,Bandjigali,143.28244,-30.07713
bje,Biao-Jiao Mien,111.3442,25.53089
bjf,Barzani Jewish Neo-Aramaic,35.15357,31.76957
bjg,Bidyogo,-16.14972,11.10971
bjh,Bahinemo,142.8322,-4.55527
bji,Burji,37.85176,5.43223
bjj,Kanauji,79.2883,27.1074
bjk,Barok,152.19344,-3.47672
bjl,Bulu,150.10143,-5.06134
bjm,Bajelani,42.98673,33.94978
bjn,Banjar,114.62579,-4.15948
bjo,Mid-Southern Banda,21.08315,5.11741
bjq,Southern Betsimisaraka Malagasy,48.11078,-20.86868
bjr,Binumarien,146.10232,-6.22068
bjs,Bajan,-59.53465,13.13648
bjt,Balanta-Ganja,-15.66585,12.53821
bju,Busuu,9.78433,6.68152
ozm,Koonzime,13.54152,3.25933
bjx,Banao Itneg,121.04991,17.56429
bjy,Bayali,151.69855,-24.97935
bjz,Baruga,148.76141,-9.40132
bka,Kyak,11.27845,9.51524
bkb,Finallig,121.11048,17.03193
bkc,Baka,14.73379,2.12133
bkd,Binukid,124.89245,8.15933
bke,Bengkulu,102.54744,-3.86312
bkf,Beeke,29.98416,3.18438
bkg,Buraka,20.73737,4.45121
bkh,Bakoko,9.99905,3.56518
bki,Baki,168.16506,-16.70956
bkj,Pande,16.22754,3.57935
bkk,Brokskat,76.60261,34.53077
bcl,Central Bicolano,123.40331,13.75743
bkm,Kom,10.3348,6.2596
bkn,Bukitan,115.16105,2.40995
bko,Kwa',10.3453,4.88273
bkp,Boko,18.88064,1.51612
bkq,Bakairí,-54.7034,-14.26284
bkr,Bakumpai,114.76971,-1.98842
bks,Masbate Sorsogon,124.0016,12.84378
bkt,Boloki,18.45554,0.83463
bku,Buhid,121.20976,12.63958
bkv,Bekwarra,8.86489,6.73737
bkw,Bekwil,14.68688,1.77237
bkx,Baikeno,124.25622,-9.32991
bky,Bokyi,9.04164,6.23842
bry,Burui,143.01497,-4.03527
brz,Bilbil,145.76404,-5.26505
bsa,Abinomn,138.89052,-2.92281
bsb,Brunei Bisaya,114.51713,4.60791
bsc,Bassari,-12.8191,12.62937
bsd,Sarawak Bisaya,114.50155,4.0978
bse,Wushi,10.60354,6.07415
bsf,Bauchi,6.61686,10.20768
bsg,Bashkardi,47.35352,34.23427
bsh,Kati,70.38939,35.18881
bsi,Bassossi,9.52275,5.23655
bsj,Bangwinji,11.20216,9.57157
bsk,Burushaski,74.82364,36.2161
bsl,Basa-Gumna,6.58105,9.94207
bsm,Busami,136.03229,-1.73681
bsn,Barasana,-70.80803,0.02193
bso,Buso,17.60109,12.50084
bsp,Baga Sitemu,-14.47558,10.47931
eus,Basque,-2.07063,42.96804
bsr,Bassa-Kontagora,4.98331,10.33331
bss,Akoose,9.65522,4.9243
bst,Basketo,36.57628,6.45774
bsu,Bahonsuai,121.70659,-2.22572
bsv,Baga Sobane,-13.90538,9.98865
bsw,Baiso,37.76811,6.44892
bsx,Yangkam,10.28814,9.44956
bsy,Sabah Bisaya,115.51229,5.30433
bsz,Souletin Basque,-0.87075,43.10837
bta,Bata,12.28614,10.05021
btb,Beti,11.68962,3.22265
btc,Bati,11.0591,4.25573
btd,Batak Dairi,98.24269,2.51438
bte,Gamo-Ningi,9.24843,10.93457
btf,Birgit,19.81819,12.02281
btg,Gagnoa Bété,-5.9701,6.10051
bth,Biatah,110.33729,1.24835
bti,Burate,136.03841,-2.79301
btj,Bacanese Malay,127.49047,-0.62275
bya,Batak,119.02539,10.11148
btl,Bhatola,80.84201,22.7174
btm,Batak Mandailing,99.89803,0.85805
btn,Ratagnon,121.18703,12.27848
bto,Iriga Bicolano,123.3307,13.38959
btp,Budibud,153.68914,-9.29802
btq,Batek,102.38206,4.8223
btr,Baetora,168.15868,-15.25738
bts,Batak Simalungun,98.90834,3.04372
btt,Bete-Bendi,9.20189,6.62037
btu,Batu,10.93773,6.81588
btv,Bateri,72.94908,34.89464
btw,Butuanon,125.41841,8.87009
btx,Batak Karo,98.25166,2.12787
bkz,Bungku,122.21197,-3.22197
bfk,Ban Khor Sign Language,103.296,16.911
blb,Bilua,156.66311,-7.92388
bla,Blackfoot,-113.2755,49.47284
bld,Bolango,123.88798,0.39044
ble,Balanta-Kentohe,-15.32209,11.82031
blf,Buol,121.51903,0.97727
bul,Bulgarian,25.48454,41.35608
blh,Kuwaa,-9.9765,7.54885
bli,Bolia,18.09748,-1.38362
blj,Bolongan,117.29306,2.75927
blk,Pa'o Karen,97.12815,20.6799
bll,Biloxi,-89.19508,31.31999
blm,Beli,29.79543,6.40428
bln,Southern Catanduanes Bicolano,124.28969,13.69895
blo,Anii,1.64186,9.18615
blp,Blablanga,159.41863,-8.15058
blq,Baluan-Pam,147.28194,-2.5604
blr,Blang,99.17203,24.48598
bls,Balaesang,119.68862,-0.05644
blt,Tai Dam,103.70305,21.08095
blu,Hmong Njua,105.48268,27.88614
blv,Bolo,15.0867,-10.35106
blw,Balangao,121.27186,17.09937
blx,Mag-Indi Ayta,120.182,14.96171
bly,Notre,1.27435,10.70255
blz,Balantak,123.28932,-0.86809
bma,Lame,8.78768,10.72287
bmb,Bembe,28.48541,-4.16088
bmc,Biem,144.81585,-3.61342
bmd,Baga Manduri,-14.60521,10.76747
bme,Limassa,20.558,4.753
bmf,Bom,-11.59696,9.27518
bmg,Bamwe,19.16445,2.16773
bmh,Kein,145.48294,-5.3373
bmi,Bagirmi,16.4259,11.11799
bmj,Bote-Majhi,84.34801,27.70739
bmk,Ghayavi,149.84038,-10.011
bml,Bomboli,18.5131,1.99315
bmm,Northern Betsimisaraka Malagasy,48.81197,-19.91844
bmn,Bina,149.66147,-10.2667
bmo,Bambalang,10.54395,5.861
bmp,Bulgebi,146.40282,-5.69713
bmq,Bomu,-4.49861,12.69108
bmr,Muinane,-72.42495,-0.8652
mya,Burmese,95.78856,20.29805
bmt,Biao Mon,113.46905,24.64507
bmu,Burum-Mindik,147.33332,-6.51663
bmv,Bum,10.41798,6.48655
bmw,Bomwali,16.08587,1.51302
bmx,Baimak,145.60624,-5.18943
bmy,Bemba,28.929,-4.26225
bmz,Baramu,143.00231,-8.4885
bna,Bonerate,121.79239,-7.37657
bnb,Bookan,116.47389,5.32519
bnc,Central Bontoc,121.02662,17.09386
bnd,Banda,133.14183,-5.42138
bne,Bintauna,123.48582,0.75069
bnf,Masiwang,130.60114,-3.29547
ben,Bengali,90.2203,21.82808
bnh,Banawá,-64.95344,-6.70006
bni,Bangi,17.93841,0.10137
bnj,Eastern Tawbuid,121.17652,12.89681
bnk,Bierebo,168.15444,-16.66632
bnl,Boon,43.12076,0.41988
bnm,Batanga,9.57773,1.45761
bnn,Bunun,121.02534,23.41164
bno,Bantoanon,122.03419,12.51942
bnp,Bola,150.09488,-5.55792
bnq,Bantik,124.84556,1.44586
bnr,Butmas-Tur,167.03365,-15.33532
bns,Bundeli,78.95417,24.89823
tqu,Touo,157.29578,-8.58405
bnu,Bentong,119.80592,-4.76004
bnv,Bonerif,139.20752,-2.09529
bnw,Bisis,143.0581,-4.46238
bnx,Bangubangu,27.24376,-4.31464
bny,Bintulu,113.6342,3.867
bnz,Beezen,10.10905,6.81552
boa,Bora,-71.79863,-2.40029
bob,Boni,40.94853,-1.62738
boc,Bakung Kenyah,114.85339,1.45099
bvw,Boga,12.93596,10.18797
boe,Mundabli,10.27042,6.59969
bof,Bolon,-4.75524,11.82422
bog,Bamako Sign Language,-8.00136,12.651
boh,Boma,22.97302,3.5857
boi,Barbareno,-119.711,34.429
boj,Anjam,145.71663,-5.45899
bok,Bonjo,17.62984,2.39823
bol,Bole,11.23216,11.48388
bom,Berom,8.81221,9.67037
boo,Tièma Cièwè Bozo,-4.25688,15.47052
bop,Bonkiman,146.73767,-5.84007
boq,Bogaya,142.25459,-5.54487
bor,Borôro,-55.20043,-16.60295
bwf,Boselewa,150.69337,-9.44763
bot,Bongo,27.99183,7.4145
bou,Bondei,38.50791,-5.10749
bov,Tuwuli,0.38008,7.31095
bow,Rema,141.03371,-8.41526
box,Buamu,-3.50303,11.16869
boy,Bodo,26,6
boz,Tiéyaxo Bozo,-5.08609,14.1223
bpa,Dakaka,168.01304,-16.26955
bpb,Barbacoas,-78.48343,1.5206
bpd,Banda-Banda,19.50776,5.26931
bpg,Bonggo,139.57596,-2.28044
bph,Botlikh,46.19437,42.7658
bpi,Bagupi,145.6322,-5.07778
bqi,Bakhtiari,49.77132,32.01634
bpk,Orowe,165.4727,-21.62688
bpl,Broome Pearling Lugger Pidgin,122.23344,-17.92695
bpm,Biyom,145.34793,-5.79929
bpn,Dzao Min,112.32587,24.97538
bpo,Anasi,137.71617,-1.73908
bpp,Kaure,140.14028,-3.39188
bpq,Banda Malay,129.90482,-4.55565
bug,Bugis,120.25376,-5.50086
bpt,Barrow Point,144.5307,-14.12192
bpu,Bongu,145.80561,-5.50519
bpv,Bian Marind,140.56756,-7.35942
bpw,Bo,141.45002,-4.32114
bpx,Palya Bareli,75.233,21.937
bpy,Bishnupriya,92.343,24.608
bpz,Bilba,123.30668,-10.6503
bqa,Tchumbuli,2.55627,8.43449
bqb,Bagusa,137.91394,-1.98844
bqc,Boko,3.46831,10.2359
bqd,Bung,11.63887,6.40736
bqe,Navarro-Labourdin Basque,-1.31622,43.27872
bqf,Baga Kaloum,-12.887,9.951
bqg,Bago-Kusuntu,1.41214,8.52697
bqh,Baima,103.9524,33.10014
bqj,Bandial,-16.4245,12.5258
bqk,Banda-Mbrès,20.01569,6.65001
bql,Bilakura,145.55945,-4.93116
bqm,Wumboko,9.08026,4.24717
bqn,Bulgarian Sign Language,25.00265,42.79184
bqo,Balo,9.69365,6.12552
bqp,Busa,4.39929,9.91074
bqq,Biritai,137.68014,-2.92042
bqr,Burusu,117.0118,3.36912
bqs,Bosngun,144.64724,-4.16201
bqt,Bamukumbit,10.35366,5.87292
bqu,Boguru,29.102,4.766
bqv,Begbere-Ejar,7.59566,9.40519
bqw,Buru,10.86175,7.01091
bqx,Baangi,5.7261,10.80833
bqy,Bali Sign Language,115.098,-8.383
bqz,Bakaka,9.80402,4.79991
bam,Bamanankan,-6.76313,11.89483
brb,Lave,107.00836,14.59942
brc,Berbice Creole Dutch,-58.00024,5.3829
brd,Baraamu,85.05843,28.37675
brt,Bitare,10.7599,7.01349
brf,Bera,30.02932,1.50054
brg,Baure,-64.18381,-13.12775
brh,Brahui,65.58055,28.43346
bri,Mokpwe,9.23887,4.24178
brj,Bieria,168.23249,-16.78672
brk,Birked,33.69374,20.61015
brl,Birwa,28.34484,-22.12034
brm,Barambu,26.86102,3.34642
brn,Boruca,-83.2124,8.88093
bro,Brokkat,90.64796,27.65436
brp,Barapasi,137.0536,-2.28732
brq,Breri,144.70718,-4.73271
brr,Birao,160.52035,-9.73716
brs,Baras,119.34186,-1.5667
bre,Breton,-3.78934,48.24523
bru,Eastern Bru,106.18315,17.12189
brv,Western Bru,104.75429,16.49057
brw,Bellari,76.10249,12.58518
brx,Bodo,90.58589,26.66967
bty,Bobot,130.17925,-3.43514
btz,Batak Alas-Kluet,97.81235,3.4293
bfn,Bunak,125.29556,-9.14739
bub,Bua,18.08214,9.92491
buc,Bushi,45.13678,-12.96521
bud,Ntcham,0.6876,9.27365
bue,Beothuk,-61.313,53.188
buf,Bushoong,21.45558,-4.69463
blg,Balau,110.91342,1.33476
buh,Younuo Bunu,110.47396,25.76381
bui,Bongili,16.60787,0.37063
buj,Basa-Gurmana,6.74865,10.24877
buk,Bugawac,147.31989,-6.67519
bxk,Bukusu,34.77185,0.68043
bum,Bulu,11.63646,3.16141
bun,Sherbro,-12.74053,7.77585
buo,Terei,155.745,-6.70051
bup,Busoa,122.62224,-5.60524
buq,Brem,145.56213,-4.67372
bwr,Bura-Pabir,12.30072,10.48224
bus,Bokobaru,3.80058,9.52724
but,Bungain,143.79638,-3.69674
buu,Budu,27.95104,2.00501
buv,Bun,143.89179,-4.51885
buw,Bubi,12.32251,-1.16762
bux,Boghom,10.11454,9.49679
buy,Bullom So,-13.21534,9.00085
buz,Bukwen,10.20059,6.9415
bva,Barein,18.07644,11.11685
bvb,Bube,8.68929,3.53638
bvc,Baelelea,160.72097,-8.41627
bvd,Baeggu,160.77123,-8.49014
bve,Berau Malay,117.93413,1.6687
bvf,Boor,17.56478,10.09041
bvg,Bonkeng,9.76306,4.66054
bvh,Bure,10.45544,10.46033
bvi,Belanda Viri,27.69557,7.41311
bvj,Baan,7.30065,4.66709
bvk,Bukat,113.24644,1.29075
bvl,Bolivian Sign Language,-67.57823,-16.38949
kac,Jingpho,96.91646,26.19603
chg,Chagatai,57.88758,38.21146
cll,Chala,0.50896,8.00089
cnu,Chenoua,2.19899,36.59171
chc,Catawba,-80.88569,34.96848
chd,Highland Oaxaca Chontal,-95.73011,16.18489
ctc,Chetco,-124.37588,42.68637
chf,Tabasco Chontal,-92.73666,18.17129
cgg,Chiga,29.91219,-1.04387
chh,Chinook,-119.1656,45.17285
clc,Chilcotin,-123.24458,51.98952
chj,Ojitlán Chinantec,-96.33686,18.07504
cgk,Chocangacakha,91.21954,27.46961
chl,Cahuilla,-116.69146,33.53238
ctm,Chitimacha,-90.91232,30.33861
cmn,Mandarin Chinese,106.27701,25.92863
bvn,Buna,144.11929,-3.95553
bvo,Bolgo,18.8076,10.90248
bvq,Birri,27.0842,5.3328
bvr,Burarra,134.36499,-12.30605
bvs,Belgian Sign Language,4.31312,50.8021
bvt,Bati,130.81465,-3.61403
bvu,Bukit Malay,115.63974,-2.75049
bvv,Baniva,-67.56327,5.26123
bvx,Dibole,17.23047,1.07773
bwa,Bwatoo,165.07583,-21.37772
bwb,Namosi-Naitasiri-Serua,177.63658,-18.53081
bwc,Bwile,29.77107,-8.9262
bwd,Bwaidoka,150.29725,-9.51158
bwe,Bwe Karen,96.99363,18.97957
bos,Bosnian,17.67044,42.93308
bwg,Barwe,33.45344,-17.67502
bwh,Bishuo,9.79396,6.67251
bwj,Láá Láá Bwamu,-3.17735,11.65243
bwk,Bauwaki,148.8148,-9.82577
bwl,Bwela,26.45082,-1.63062
bwm,Biwat,143.87294,-4.39429
bwn,Wunai Bunu,110.47275,27.96488
bwo,Boro,35.34498,10.65962
bwp,Mandobo Bawah,140.45116,-6.37255
bwq,Southern Bobo Madaré,-4.26497,11.54087
bws,Bomboma,18.78408,2.40195
bwt,Bafaw-Balong,9.522,4.53307
bwu,Buli,-1.26748,10.57629
bwv,Bahau River Kenyah,115.57234,2.68758
bww,Bwa,25.25138,2.5957
bwx,Bu-Nao Bunu,107.71137,24.10246
bwy,Cwi Bwamu,-2.95115,11.41824
bwz,Bwisi,12.05721,-3.1521
bxa,Bauro,161.86319,-10.58257
bxb,Belanda Bor,27.82324,6.6503
bxc,Molengue,9.61289,1.3718
bxd,Pela,97.91833,24.21422
bxe,Birale,37.02496,5.29807
bxf,Bilur,152.3339,-4.39732
bxg,Bangala,28.04453,3.3466
bxh,Buhutu,150.17956,-10.50737
bxi,Pirlatapa,139.77,-29.524
bxj,Bayungu,114.10784,-23.38088
bak,Bashkir,56.55937,53.59671
bxl,Jalkunan,-5.21959,10.54259
bxm,Mongolia Buriat,109.00535,48.76859
bxn,Burduna,114.65757,-22.96456
bxo,Barikanchi,8.4331,11.98899
bxp,Bebil,13.38484,4.86672
bxq,Beele,10.42038,10.16088
prx,Purik,76.01267,34.33855
bxs,Busam,9.68068,5.8604
bxt,Buxinhua,101.41745,21.61047
bxu,China Buriat,117.7863,48.75926
bxv,Berakou,16.72592,12.83238
bxw,Bankagooma,-5.50744,11.74971
bxx,Borna,26.08135,1.79156
bxz,Binahari,148.83482,-10.08739
tmr,Jewish Babylonian Aramaic,44.245,32.273
byb,Bikya,10.53331,6.74997
byc,Ubaghara,7.96439,5.72343
byd,Benyadu',109.75329,0.78534
bye,Pouye,141.86389,-3.72704
byf,Bete,9.74302,7.02128
byg,Baygo,28.50657,20.6947
byi,Buyu,28.5545,-5.41806
byj,Bina,8.19726,10.28679
byk,Biao,113.391,23.656
byl,Bayono,139.61748,-5.21728
bym,Bidyara,146.14726,-25.55498
byn,Bilen,38.39169,15.78326
byo,Biyo,101.6518,22.51103
byp,Bumaji,9.36028,6.4491
byq,Basay,121.85705,25.00456
byr,Baruya,145.81816,-6.89261
bys,Burak,11.06982,9.49451
byt,Berti,32.7258,20.61014
byu,Buyang,104.44861,23.0105
byv,Medumba,10.61176,5.10901
byw,Belhariya,87.27833,26.99724
byx,Qaqet,151.70192,-4.45258
byy,Buya,26.29801,-4.90828
byz,Banaro,144.32888,-4.56615
bzb,Andio,123.17408,-0.88368
ban,Bali,115.07496,-8.35714
bzd,Bribri,-83.05395,9.39794
bze,Jenaama Bozo,-4.04528,14.71752
bzf,Boikin,143.47352,-3.68297
bzg,Babuza,120.58462,24.00168
bzh,Mapos Buang,146.77413,-6.86672
bzj,Belize Kriol English,-88.62814,17.39407
bzk,Nicaragua Creole English,-83.73859,12.44018
bzl,Boano,120.99196,0.51152
bzm,Bolondo,19.61807,2.46327
bzn,Boano,127.95318,-2.95535
bzo,Bozaba,18.67837,2.07295
bzp,Kemberano,132.98754,-2.24495
bzq,Buli,128.44294,1.0008
bzr,Biri,146.66983,-20.14942
bzs,Brazilian Sign Language,-47.99999,-15.49999
bms,Bilma Kanuri,13.06649,19.10003
bzu,Burmeso,138.20315,-2.47582
bzv,Bebe,10.5646,6.74825
bzw,Basa,7.06183,8.03159
bzx,Hainyaxo Bozo,-5.65085,13.87339
bzy,Obanliku,9.27156,6.4794
bzz,Evant,9.51164,6.46753
caa,Chortí,-89.34349,14.79897
cab,Garifuna,-86.32738,15.77296
cac,San Sebastián Coatán Chuj,-91.56175,15.71373
cad,Caddo,-98.26335,35.1826
cae,Lehar,-16.88157,14.93872
caf,Southern Carrier,-124.45243,53.17629
cag,Nivaclé,-60.39113,-23.22323
cah,Cahuarano,-73.94688,-3.72665
crb,Island Carib,-61.29082,15.41728
caj,Chane,-63.98651,-22.54736
cak,Central Cakchiquel,-90.96461,14.75111
cal,Carolinian,145.76498,15.205
cam,Cemuhî,165.12988,-20.84895
can,Chambri,143.09697,-4.27831
cao,Chácobo,-66.71641,-12.13298
cap,Chipaya,-67.89633,-18.73951
caq,Car Nicobarese,92.76706,9.18853
crx,Carrier,-124.32759,54.37681
cas,Tsimané,-67.83756,-14.64448
cyb,Cayubaba,-65.48219,-13.24822
clu,Caluyanun,121.38425,12.04893
cav,Cavineña,-66.62773,-13.35441
caw,Callawalla,-68.10176,-15.88451
cax,Chiquitano,-59.91716,-17.63537
cay,Cayuga,-79.89399,43.08417
caz,Canichana,-64.91855,-14.09545
cbb,Cabiyarí,-71.06216,0.16101
cbc,Carapana,-70.63572,0.72717
cbd,Carijona,-72.06635,1.21894
cbe,Chipiajes,-71.16666,3.08332
chb,Chibcha,-74.16665,6.24999
cbg,Chimila,-74.25585,10.19016
cbh,Cagua,-73.99999,3.99999
cbi,Chachi,-79.0508,0.71489
cbj,Ede Cabe,2.48128,7.78176
cbk,Chavacano,122.16942,7.11655
cbl,Bualkhaw Chin,93.68,22.91
cbm,Yepocapa Southwestern Cakchiquel,-90.9881,14.46622
cbn,Nyahkur,101.51465,15.89091
cbo,Izora,8.76468,10.4735
cbr,Cashibo-Cacataibo,-75.42062,-8.70232
cbs,Cashinahua,-71.75549,-10.44613
cbt,Chayahuita,-76.82525,-5.63764
cbu,Candoshi-Shapra,-76.93474,-4.23835
cbv,Cacua,-69.56589,0.88778
cby,Carabayo,-69.90988,-1.7922
cca,Cauca,-69.91,1.267
ccc,Chamicuro,-75.67785,-5.1149
ccd,Cafundo Creole,-43.64549,-23.04476
cce,Chopi,34.10973,-24.83273
ccg,Samba Daka,11.70765,8.06905
cch,Atsam,8.48301,9.95914
ccj,Kasanga,-15.94127,12.41733
ccl,Cutchi-Swahili,40.77238,-2.35809
ccm,Malaccan Creole Malay,102.24192,2.30521
cco,Comaltepec Chinantec,-96.44501,17.59088
ccp,Chakma,92.1787,22.79351
ccq,Chaungtha,96.24568,20.06534
ccr,Cacaopera,-88.11325,13.74374
cho,Choctaw,-94.81899,33.89928
ccx,Northern Zhuang,107.18368,23.68182
ccy,Southern Zhuang,107.3622,21.83753
cda,Choni,99.82552,27.75524
cde,Chenchu,79.25339,15.87867
cdf,Chiru,94.4072,25.46435
cdg,Chamari,79.62321,21.3532
cdh,Chambeali,76.1796,32.54755
cdi,Chodri,73.52826,20.88031
cdj,Churahi,76.11241,32.89687
cdm,Chepang,84.90168,27.72065
cdn,Chaudangsi,80.37929,29.67882
cdo,Min Dong Chinese,119.05329,26.42063
cds,Chadian Sign Language,15.24809,12.11145
cdz,Koda,87.479,23.234
cea,Lower Chehalis,-124.00432,46.77361
ceb,Cebuano,124.36662,8.38799
ceg,Chamacoco,-58.20047,-20.58988
chr,Cherokee,-83.16303,35.46639
cet,Centúúm,11.58534,9.59433
cfa,Dijim-Bwilim,11.52005,9.67567
cfd,Cara,8.74567,10.12814
cfg,Como Karim,10.81598,8.86601
nan,Min Nan Chinese,117.04173,24.53804
cga,Changriwa,143.69565,-4.28364
cgc,Kagayanen,119.87233,10.4656
crv,Chaura,93.03307,8.45745
mjs,Miship,9.33752,9.20477
chq,Quiotepec Chinantec,-96.60203,17.56211
crw,Chrau,107.29291,10.80208
chs,Chumash,-119.96489,35.64137
cht,Cholon,-75.96211,-9.23129
clw,Chulym,89.55414,54.32087
cvn,Valle Nacional Chinantec,-96.31873,17.79638
chw,Chuwabu,37.12307,-17.34285
cpy,South Ucayali Asheninka,-73.001,-11.221
cra,Chara,36.41918,6.63946
car,Carib,-63.82088,8.53667
crc,Lonwolwol,168.0156,-16.2286
crd,Coeur d'Alene,-116.71512,47.29583
crj,Southern East Cree,-78.69712,51.40781
crf,Caramanta,-75.877,5.624
crg,Michif,-99.79826,48.83315
crh,Crimean Turkish,65.50777,40.12217
cri,Sãotomense,6.61935,0.28332
mus,Muskogee,-81.05701,27.07805
crl,Northern East Cree,-77.7505,55.19282
crm,Moose Cree,-80.69116,51.06859
cor,Cornish,-4.18619,50.52332
cro,Crow,-107.87403,45.368
crk,Plains Cree,-112.24606,54.43446
crq,Iyo'wujwa Chorote,-62.9306,-22.17584
crr,Carolina Algonquian,-77.291,35.979
crs,Seselwa Creole French,55.4503,-4.62314
crt,Iyojwa'ja Chorote,-63.23831,-22.1896
cru,Carútana,-68.45267,1.44705
chn,Chinook Wawa,-123.22007,49.37116
hrv,Croatian,16.47117,43.51499
cry,Cori,7.95163,9.37832
crz,Cruzeno,-119.711,34.429
csa,Chiltepec Chinantec,-96.21833,18.06061
csb,Kashubian,18.61634,54.29956
csc,Catalonian Sign Language,-1.97,41.635
csd,Chiangmai Sign Language,99.03901,18.86295
cse,Czech Sign Language,14.4774,50.01201
csf,Cuba Sign Language,-79.209,22.061
csg,Chilean Sign Language,-70.66979,-32.78099
csh,Asho Chin,94.66312,20.53349
csi,Coast Miwok,-122.99431,38.3285
csk,Jola-Kasa,-16.55386,12.50885
csl,Chinese Sign Language,121.56875,30.90631
csm,Central Sierra Miwok,-120.25684,38.0812
csn,Colombian Sign Language,-75.44639,5.33532
cso,Sochiapan Chinantec,-96.60795,17.79855
csq,Croatia Sign Language,16.796,45.502
csr,Costa Rican Sign Language,-84.11803,9.8943
css,Southern Ohlone,-121.177,36.364
cst,Northern Ohlone,-121.177,36.364
chx,Chantyal,83.44876,28.68399
chy,Cheyenne,-106.65888,45.53206
chz,Ozumacín Chinantec,-96.22489,17.69764
cia,Cia-Cia,122.79103,-5.68289
cib,Ci Gbe,2.02134,6.84217
cic,Chickasaw,-97.13012,33.94523
cid,Chimariko,-122.84979,45.50927
cie,Cineni,13.81868,11.13194
cih,Chinali,76.961,32.555
cik,Chitkuli Kinnauri,78.52868,31.2965
cim,Cimbrian,11.42855,46.87768
cin,Cinta Larga,-60.83115,-10.58788
cip,Chiapanec,-91.94174,16.6562
cir,Tiri,165.79163,-21.8147
cit,Chittagonian,92.169,22.363
ciw,Chippewa,-94.27376,47.34704
ciy,Chaima,-63.10336,9.21256
cja,Western Cham,105.64424,12.07815
che,Chechen,45.73836,43.21954
cha,Chamorro,144.78661,13.45633
cje,Chru,108.52928,11.66249
cjh,Upper Chehalis,-123.16929,46.79807
cji,Chamalal,45.99496,42.50239
cjk,Chokwe,19.681,-6.55208
cjm,Eastern Cham,108.49012,11.28528
cjn,Chenapian,142.31714,-4.25154
cjo,Ashéninka Pajonal,-74.2014,-10.75832
cjp,Cabécar,-83.41016,9.67031
cjr,Chorotega,-85.12285,10.81539
cjs,Shor,88.4344,52.32607
chv,Chuvash,47.16298,55.48701
cjv,Chuave,145.13949,-6.17824
cjy,Jinyu Chinese,111.27829,38.8284
cka,Khumi Awa Chin,93.3656,20.52265
ckb,Central Kurdish,44.99394,35.62028
ckc,Northern Cakchiquel,-90.75523,14.86021
ckd,South Central Cakchiquel,-90.77895,14.6754
cke,Eastern Cakchiquel,-90.59295,14.82311
ckf,Southern Cakchiquel,-90.76488,14.47478
ckh,Chak,92.65165,20.93079
cki,Santa María de Jesús Cakchiquel,-90.75021,14.49879
ckj,Santo Domingo Xenacoj Cakchiquel,-90.59525,14.61388
ckk,Acatenango Southwestern Cakchiquel,-90.82068,14.49999
ckl,Cibak,12.90198,10.89767
cko,Anufo,0.28594,10.16161
ckq,Kajakse,20.87897,12.24917
ckr,Kairak,151.98005,-4.46941
cks,Tayo,166.54637,-22.22768
ckt,Chukot,170.04503,68.64356
cku,Koasati,-92.70902,30.40957
ckv,Kavalan,121.64463,24.69475
ckw,Western Cakchiquel,-91.17599,14.77298
ckx,Caka,9.77746,6.26979
cky,Cakfem-Mushere,9.16071,9.00924
ckz,Cakchiquel-Quiché Mixed Language,-90.69885,14.6467
cla,Ron,8.97756,8.96481
cld,Chaldean Neo-Aramaic,43.50269,37.09724
cle,Lealao Chinantec,-95.92651,17.31625
clh,Chilisso,73.3344,35.24943
cli,Chakali,-1.90181,9.83446
clk,Idu-Mishmi,95.90932,28.23208
clm,Clallam,-123.5115,48.07068
cat,Catalan-Valencian-Balear,1.23027,41.91647
clo,Lowland Oaxaca Chontal,-95.68757,15.94974
cly,Eastern Highland Chatino,-97.15261,16.24374
cma,Maa,107.33902,11.52052
cmi,Emberá-Chamí,-76.07486,4.8791
cmk,Chimakum,-123.079,47.632
cml,Campalagian,119.18235,-3.45795
cmr,Mro Chin,93.995,19.71
cmt,Camtho,27.942,-26.247
cna,Changthang,78.23889,34.06624
cnb,Chinbon Chin,94.05059,20.07758
cnc,Côông,102.75873,22.33108
cng,Northern Qiang,103.1923,32.27662
cnh,Haka Chin,93.72557,22.4037
cni,Asháninka,-73.90728,-11.93109
cnk,Khumi Chin,93.37426,21.15943
cnl,Lalana Chinantec,-96.00645,17.58251
cnm,Ixtatán Chuj,-91.57327,15.93027
cno,Con,100.90354,20.64417
cnt,Tepetotutla Chinantec,-96.54039,17.71151
cnw,Ngawn Chin,93.58348,21.93031
coa,Cocos Islands Malay,117.75655,4.6966
cob,Chicomuceltec,-92.29169,15.67822
coc,Cocopa,-114.98532,32.14522
cod,Cocama-Cocamilla,-74.67422,-5.72673
coe,Koreguaje,-75.34745,0.92316
cof,Colorado,-79.23468,-0.21181
cog,Chong,102.85974,12.16844
coh,Chonyi,39.75531,-3.79746
cos,Corsican,9.10398,42.15886
coj,Cochimi,-114.07703,29.04001
cok,Santa Teresa Cora,-104.70003,22.71018
col,Columbia-Wenatchi,-118.45361,48.21697
com,Comanche,-98.42395,34.57014
con,Cofán,-77.06144,0.14687
coo,Comox,-124.96678,49.72325
cop,Coptic,31.2053,29.47203
coq,Coquille,-119.60513,44.51766
crn,El Nayar Cora,-104.46744,22.40993
csz,Coos,-124.15962,43.44131
cot,Caquinte,-73.44506,-11.48125
cou,Wamey,-13.09264,12.65234
cov,Cao Miao,109.54741,26.22358
cow,Cowlitz,-122.91665,46.41666
cox,Nanti,-72.35066,-12.10185
coy,Coyaima,-72.99999,11.33332
coz,Chochotec,-97.23884,17.66601
cpa,Palantla Chinantec,-96.34073,17.88397
cpb,Ucayali-Yurúa Ashéninka,-73.44384,-9.76717
cpc,Ajyíninka Apurucayali,-74.61947,-9.82364
cpi,Chinese Pidgin English,166.92553,-0.53224
cpg,Cappadocian Greek,23.294,40.386
cpn,Cherepon,-0.10955,6.05387
prq,Ashéninka Perené,-74.91528,-10.97772
cps,Capiznon,122.95359,11.41215
cpu,Pichis Ashéninka,-74.60281,-10.47249
chp,Chipewyan,-110.83177,58.36372
cpx,Pu-Xian Chinese,118.88338,25.19523
csw,Swampy Cree,-110.83177,58.36372
csy,Siyin Chin,93.68843,23.81919
cta,Tataltepec Chatino,-97.53112,16.29628
ctd,Tedim Chin,93.82231,23.50458
cte,Tepinapa Chinantec,-96.14331,17.66507
cti,Tila Chol,-92.46983,17.48965
ctl,Tlacoatzintepec Chinantec,-96.51764,17.8646
ctn,Chhintange,87.18994,26.96099
cto,Emberá-Catío,-76.08584,7.27548
ctp,Western Highland Chatino,-97.32436,16.2495
cts,Northern Catanduanes Bicolano,124.27041,13.90317
ctu,Tumbalá Chol,-92.26418,17.47664
ctz,Zacatepec Chatino,-97.3069,16.07998
cua,Cua,108.43092,15.16883
cub,Cubeo,-70.65322,1.38651
cug,Cung,10.41045,6.59687
cuh,Chuka,37.61164,-0.27405
cui,Cuiba,-70.19663,6.15685
cuj,Mashco Piro,-70.79527,-11.47453
cuk,San Blas Kuna,-78.3075,9.15686
cul,Culina,-70.66261,-7.35778
cum,Cumeral,-69.49999,2.83332
cun,Cunén Quiché,-91.05492,15.33547
cuo,Cumanagoto,-63.018,10.209
cup,Cupeno,-116.51471,33.31483
cuq,Cun,108.74318,19.21816
cur,Chhulung,87.21331,26.91065
cuc,Usila Chinantec,-96.40743,17.9184
cut,Teutila Cuicatec,-96.66452,17.90286
cuu,Tai Ya,101.89865,23.56897
cuv,Cuvok,14.00059,10.64483
cuw,Chukwa,86.98242,27.35802
cux,Tepeuxila Cuicatec,-96.78797,17.75598
cwa,Kabwa,34.3923,-1.7124
cwb,Maindo,36.59405,-18.31432
cwd,Woods Cree,-110.83177,58.36372
cwe,Kwere,38.44485,-6.50666
cwg,Chewong,102.08116,3.83331
cwt,Kuwaataay,-16.74835,12.48255
cya,Nopala Chatino,-97.13392,16.09536
cyo,Cuyonon,119.30028,10.32008
ces,Czech,15.37182,49.88641
czn,Zenzontepec Chatino,-97.45546,16.52799
czh,Huizhou Chinese,118.23232,29.76462
czk,Knaanic,15.42944,49.79786
czo,Min Zhong Chinese,117.37571,26.06861
czt,Zotung Chin,93.28998,22.52977
daa,Dangaléat,18.38502,12.15165
dac,Dambi,146.47431,-7.00587
dad,Marik,145.59021,-5.349
dae,Duupa,13.45438,8.55031
daf,Dan,-7.92123,7.54247
dag,Dagbani,-0.43227,9.64745
dah,Gwahatike,146.45496,-5.64555
dai,Day,17.51464,8.52612
daj,Dar Fur Daju,25.31274,12.25982
dzg,Dazaga,18.84133,17.13399
dal,Dahalo,40.36999,-2.1843
dny,Dení,-67.50286,-6.74962
dao,Daai Chin,93.78532,20.73472
dap,Nisi,93.12839,27.37082
daq,Dandami Maria,81.35982,18.7475
dar,Dargwa,47.43876,42.42568
das,Daho-Doo,-7.3558,5.72458
dat,Darang Deng,96.88032,28.49929
dau,Dar Sila Daju,21.79257,12.20539
dav,Taita,38.57254,-3.79347
daw,Davawenyo,126.45792,7.22613
dax,Dayi,136.21967,-13.18057
drh,Darkhat,99.44493,50.62298
daz,Dao,136.42108,-3.28643
dba,Bangeri Me Dogon,-3.77092,14.81163
dbb,Deno,10.43937,10.63147
dbd,Dadiya,11.35868,9.62705
dbe,Dabe,139.11609,-2.05082
dbf,Edopi,137.38731,-3.11078
dbg,Dogul Dom Dogon,-3.56855,14.58719
dbi,Doka,7.96099,10.22873
dbj,Ida'an,118.51493,5.29059
dbl,Dyirbal,145.5442,-17.45162
dbm,Duguri,10.21664,9.42456
dbn,Duriankere,130.92525,-1.38946
dbo,Dulbu,9.94759,10.19107
dbp,Duwai,11.33668,12.80297
dbq,Daba,13.91339,10.20317
dbr,Dabarre,43.33041,1.2179
dbu,Bondum Dom Dogon,-3.32636,14.90665
dbv,Dungu,8.19543,10.50427
dby,Dibiyaso,142.77883,-7.82096
dcc,Deccan,75.71697,18.59186
dcr,Negerhollands,-64.89215,18.34155
ddd,Dongotono,33.24287,4.43426
dde,Doondo,13.56413,-4.30483
ddg,Fataluku,127.08042,-8.49464
ddi,Diodio,150.16758,-9.38654
ddj,Jaru,128.26205,-18.32879
ddo,Dido,45.80959,42.26458
dds,Donno So Dogon,-3.51468,14.34019
ddw,Dawera-Daweloor,130.05955,-7.76324
dec,Dagik,29.94036,10.583
ded,Dedua,147.62657,-6.38206
dee,Dewoin,-10.90765,6.56113
def,Dezfuli,48.907,32.374
deg,Degema,6.80991,4.73373
deh,Dehwari,66.59775,29.52046
dei,Demisa,136.69383,-2.54564
dek,Dek,14.48328,11.01828
unm,Unami,-98.32013,35.02644
dem,Dem,137.63227,-3.72183
ddn,Dendi,3.31524,11.66627
dep,Pidgin Delaware,-75.463,38.569
deq,Dendi,22.56605,4.48146
der,Deori,93.70572,26.86152
des,Desano,-69.12526,0.32751
dhv,Dehu,167.22924,-20.88918
dev,Domung,146.68152,-5.81856
dez,Dengese,21.41943,-3.26337
dga,Southern Dagaare,-2.52265,10.4226
dgr,Dogrib,-114.19257,62.38234
dgc,Casiguran Dumagat Agta,121.87821,16.2176
dgd,Dagaari Dioula,-2.48569,11.68387
dge,Degenan,146.57176,-5.70892
dgg,Doga,149.84148,-9.63698
dgh,Dghwede,13.77847,11.05751
dgi,Northern Dagara,-3.0124,11.04408
dgk,Dagba,18.10334,7.37156
ada,Dangme,0.13243,5.9437
dgn,Dagoman,132.379,-15.764
dgo,Dogri,75.71109,32.55342
dgu,Degaru,86.76939,25.04606
dgs,Dogoso,-4.35805,10.04888
dgx,Doghoro,148.76599,-9.13688
dgz,Daga,149.26296,-9.9747
dha,Dhanwar,83.16442,23.06127
dhd,Dhundari,76.198,26.473
dak,Dakota,-100.70486,45.1012
dhi,Dhimal,87.71463,26.67754
dhl,Dhalandji,114.93718,-22.19598
dhm,Zemba,13.53886,-16.48556
dhn,Dhanki,73.74179,20.77195
dho,Dhodia,73.27433,21.06564
dhr,Dhargari,114.84667,-24.06008
dhs,Dhaiso,38.81801,-4.81209
dhu,Dhurga,150.13383,-35.41204
dhw,Dhanwar,85.0074,27.54803
dia,Dia,142.24844,-3.38837
dib,South Central Dinka,30.30213,6.7307
dic,Lakota Dida,-5.40633,5.86012
did,Didinga,33.68688,4.21489
dif,Dieri,137.99999,-28.16666
dig,Digo,39.42845,-4.35089
dih,Kumiai,-116.5241,32.42528
dii,Dimbong,10.9888,4.80551
dij,Dai,129.68668,-7.55894
dik,Southwestern Dinka,28.06131,8.81115
dil,Dilling,29.60565,12.03469
dim,Dime,36.33293,6.20951
dks,Southeastern Dinka,31.28501,7.02206
dio,Dibo,6.3731,9.0611
dip,Northeastern Dinka,31.83923,9.27995
diq,Dimli,39.63882,38.61469
dir,Dirim,11.63209,7.83766
dis,Dimasa,93.18061,25.41984
dit,Dirari,138.07782,-28.79923
diu,Diriku,20.60006,-18.54794
dsi,Disa,19.21559,10.32184
diw,Northwestern Dinka,29.29981,9.81484
dix,Dixon Reef,167.51592,-16.32665
diy,Diuwe,139.45512,-5.12627
diz,Ding,19.38809,-4.44304
djb,Djinba,134.96743,-12.93004
djc,Dar Daju Daju,18.79962,12.11866
djd,Djamindjung,130.0598,-15.05583
dje,Zarma,1.94971,13.92109
djf,Djangun,144.93245,-16.91051
dji,Djinang,134.82031,-12.46201
djj,Djeebbana,134.09666,-12.01331
djk,Aukan,-54.9525,4.552
djl,Djiwarli,116.98858,-24.10724
djm,Jamsay Dogon,-2.38069,14.44639
djn,Djauan,133.00152,-14.13608
djo,Djongkang,110.64722,0.29738
djr,Djambarrpuyngu,135.59014,-12.02098
dju,Kapriman,143.24107,-4.51011
djw,Djawi,123.1856,-16.41625
dka,Dakpakha,91.82455,27.37615
dkk,Dakka,119.23484,-3.33671
dkl,Kolum So Dogon,-3.8795,14.36174
dkr,Kuijau,116.10842,5.47179
dkx,Mazagway,13.68728,10.17501
dlc,Dalecarlian,13.98228,61.24534
dlg,Dolgan,94.29358,71.10828
dlm,Dalmatian,18.02377,42.70949
dln,Darlong,91.3397,24.01808
dma,Duma,13.00456,-0.91927
dmc,Dimir,145.67561,-4.8296
dme,Dugwor,14.21344,10.75203
dmg,Upper Kinabatangan,116.90097,5.31911
dmk,Domaaki,74.7984,36.3258
dml,Dameli,71.68065,35.29901
dmm,Dama,14.0597,8.72207
dmo,Kemezung,10.49838,6.69577
dmr,East Damar,128.6357,-7.16991
dms,Dampelas,120.21879,0.70234
dmu,Dubu,140.76837,-3.62591
dmv,Dumpas,117.419,5.93483
dmx,Dema,32.77308,-15.68941
dmy,Demta,140.16567,-2.38475
dna,Upper Grand Valley Dani,138.90083,-3.94368
dnd,Daonda,141.2198,-3.31443
dne,Ndendeule,36.01053,-10.42032
dng,Dungan,78.42795,42.51502
dni,Lower Grand Valley Dani,138.99248,-4.25684
dnk,Dengka,122.94583,-10.78657
dnn,Dzùùngoo,-4.92036,11.37957
dnr,Danaru,145.45672,-5.53634
dan,Danish,9.51882,54.9485
dnt,Mid Grand Valley Dani,138.94483,-4.06322
dnu,Danau,96.99805,20.4957
dnw,Western Dani,138.21693,-3.77127
doa,Dom,144.89497,-6.03737
dob,Dobu,150.82504,-9.63239
doc,Northern Dong,109.20384,26.99443
doe,Doe,38.49022,-6.25844
dof,Domu,148.45002,-10.15101
doh,Dong,11.99245,8.64119
mkp,Moikodi,148.31167,-9.60232
dok,Dondo,120.70738,0.80348
dol,Doso,142.65608,-7.85806
don,Toura,146.98836,-9.10008
doo,Dongo,29.96193,2.96683
dop,Lukpa,1.99545,9.40879
doq,Dominican Sign Language,-71.17218,18.87983
dor,Dori'o,160.89663,-9.11536
dos,Dogosé,-4.1493,10.18993
dot,Dass,9.51838,9.9325
dua,Duala,9.61877,4.10208
dov,Dombe,26.502,-18.37
dow,Doyayo,13.07676,8.68604
dox,Bussa,37.20169,5.74987
doy,Dompo,-2.295,8.182
doz,Dorze,37.55537,6.25237
dpp,Papar,115.58015,5.57378
psi,Southeast Pashayi,70.30351,34.43099
drb,Dair,30.67816,12.47398
drd,Darmiya,80.52903,29.889
dre,Dolpo,83.29267,29.19568
drg,Rungus,116.74264,6.83989
dri,C'lela,5.26544,11.46534
drl,Darling,142.69519,-32.70212
drn,West Damar,128.58527,-7.12065
dro,Daro-Matu,111.53563,2.54435
drq,Dura,84.435,28.173
drr,Dororo,157.76722,-8.30556
drs,Gedeo,38.2395,6.18469
drt,Drents,6.51539,52.9024
dru,Rukai,120.84424,22.77381
drw,Darwazi,70.76427,38.31608
dry,Darai,84.13573,27.8623
dse,Dutch Sign Language,4.91133,52.12512
dsh,Daasanach,36.17054,4.66048
dsl,Danish Sign Language,12.31866,55.82574
dsn,Dusner,134.39057,-2.73859
dso,Desiya Oriya,82.646,18.965
dsq,Tadaksahak,2.32653,16.685
dta,Daur,124.52998,48.21326
dtb,Labuk-Kinabatangan Kadazan,117.50653,5.51924
dtk,Tene Kan Dogon,-3.37158,14.06755
dtm,Tomo Kan Dogon,-3.66007,13.83082
dtp,Central Dusun,116.68089,6.02998
dtr,Lotud,116.23239,6.13732
dts,Toro So Dogon,-3.10006,14.40749
dtt,Toro Tegu Dogon,-2.22427,15.06437
dva,Duau,151.21773,-10.18696
dub,Dubli,73.218,21.51607
duc,Duna,142.47498,-5.41439
dud,Hun-Saare,5.07312,10.78983
due,Umiray Dumaget Agta,121.50814,14.87569
duf,Dumbea,166.53113,-22.09465
dug,Duruma,39.32203,-4.09629
duh,Dungra Bhil,73.187,22.306
dui,Dumun,146.08223,-5.55315
duj,Dhuwal,136.00811,-12.78254
duk,Duduela,145.64193,-5.43119
dul,Alabat Island Agta,122.0143,14.1217
gjn,Gonja,-0.72757,8.48801
dun,Dusun Deyah,115.57806,-1.95514
duo,Dupaninan Agta,122.18812,17.37477
dup,Duano',103.3602,1.56829
duq,Dusun Malang,115.39233,-0.85277
dur,Dii,13.98844,7.77412
dus,Dumi,86.75699,27.45849
efa,Efai,8.27625,4.60447
efe,Efe,29.29185,1.8798
efi,Efik,8.38121,4.89379
ega,Ega,-5.41732,5.56081
ego,Eggon,8.45686,8.71442
ehu,Ehueun,5.58213,7.48032
eip,Eipomek,140.04456,-4.33691
eit,Eitiep,142.55536,-3.51561
eiv,Askopan,155.30733,-6.22539
eja,Ejamat,-16.51307,12.288
eka,Ekajuk,8.55058,6.45731
eke,Ekit,7.89222,4.7645
ekg,Ekari,136.0176,-3.88974
eki,Eki,8.13613,5.1503
ekm,Elip,11.19304,4.45694
nld,Dutch,5.332,51.77029
duu,Drung,98.49449,28.00792
duv,Duvle,137.96449,-3.21832
duw,Dusun Witu,114.97946,-1.57408
dux,Duungooma,-5.85872,10.92344
duy,Dicamay Agta,121.60564,17.88464
duz,Duli,13.42323,9.11241
dwa,Diri,9.32363,11.17012
dww,Dawawa,149.99865,-10.16915
dya,Dyan,-3.59179,10.8342
dyb,Dyaberdyaber,122.52306,-17.18653
dyd,Dyugun,122.40831,-17.90595
dyg,Villa Viciosa Agta,120.63753,17.47098
dyi,Djimini Senoufo,-4.45627,8.36279
dyk,Land Dayak,109.98179,-0.04815
dyn,Dyangadi,152.6025,-30.84687
dyo,Jola-Fonyi,-16.20977,12.80851
dyu,Jula,-4.08665,10.77063
dyy,Dyaabugay,145.38835,-16.59598
dza,Duguza,10.21664,9.42456
dzd,Daza,10.48652,10.11845
jpr,Dzhidi,35.15602,31.76537
dzl,Dzalakha,91.37399,27.78546
dzn,Dzando,19.00221,2.24195
dzo,Dzongkha,89.75117,27.38056
ebg,Ebughu,8.01304,4.82544
ebo,Teke-Eboo,15.57351,-2.29619
ebr,Ebrié,-4.03188,5.36868
ebu,Embu,37.59334,-0.62822
ecs,Ecuadorian Sign Language,-79.16665,-1.24999
bin,Edo,5.70426,6.40701
eee,E,109.06274,24.72616
eko,Koti,39.76024,-16.48229
ekp,Ekpeye,6.53362,5.06715
ekr,Yace,8.84077,6.84259
eky,Eastern Kayah,98.921,20.907
ele,Elepi,143.93014,-3.7505
elh,El Hugeirat,28.59013,11.94803
eli,Nding,30.73055,10.27415
elk,Elkei,142.09265,-3.45544
tvl,Tuvaluan,178.69192,-7.4778
elm,Eleme,7.267,4.72964
elo,El Molo,36.76187,2.79312
elp,Elpaputih,128.263,-3.078
elu,Elu,147.10086,-1.99841
ema,Emai-Iuleha-Ora,5.84494,7.09089
emb,Embaloh,112.62997,1.3156
eme,Emerillon,-52.36986,3.23694
emg,Eastern Meohang,87.11336,27.51034
emi,Mussau-Emira,149.62397,-1.44105
eml,Emiliano-Romagnolo,10.97675,44.52629
emn,Eman,9.70562,6.22923
emo,Emok,-57.88921,-24.92015
emp,Northern Emberá,-78.09685,7.63322
ems,Pacific Gulf Yupik,-148.04281,60.42382
emu,Eastern Muria,80.88926,20.14222
emw,Emplawas,129.72112,-8.03209
ena,Apali,145.02281,-5.1727
enb,Endo,35.58662,1.15018
enc,En,106.1667,22.83859
end,Ende,121.55456,-8.70998
enf,Forest Enets,88.2121,69.98287
eng,English,-2.23831,53.27692
enh,Tundra Enets,83.7405,70.16258
eni,Enim,103.88548,-3.85835
enn,Engenni,6.37339,5.11931
eno,Enggano,102.24509,-5.38846
enq,Enga,143.68529,-5.45619
enr,Emumu,140.90347,-3.74242
enw,Enwan,8.20974,4.68739
env,Enwan,6.07393,7.15316
eot,Beti,-3.28627,5.26495
epi,Epie,6.3146,5.00894
erg,Sie,169.16608,-18.81812
erh,Eruwa,6.04818,5.18026
eri,Ogea,145.71017,-5.37766
erk,South Efate,168.37659,-17.70063
ero,Horpa,101.72,31.10258
err,Erre,132.86787,-12.28391
ers,Ersu,102.21339,29.28674
erw,Erokwanas,132.7048,-2.83746
ike,Eastern Canadian Inuktitut,-75.61387,62.17345
ikt,Western Canadian Inuktitut,-96.14797,64.34861
ese,Ese Ejja,-66.03656,-10.89674
kal,Greenlandic Inuktitut,-52.86402,69.37608
esh,Eshtehardi,50.36768,35.72672
esi,North Alaskan Inupiatun,-153.91532,70.78648
esk,Northwest Alaska Inupiatun,-161.80666,64.77955
esl,Egypt Sign Language,29.654,29.567
esm,Esuma,-3.05409,5.21504
esn,Salvadoran Sign Language,-89.59881,13.7024
eso,Estonian Sign Language,24.566,58.947
epo,Esperanto,2.81045,49.32733
esq,Esselen,-121.86656,36.54726
ess,Central Siberian Yupik,-170.27166,63.43083
est,Estonian,25.8136,58.72406
esu,Central Yupik,-161.48588,60.30616
etb,Etebi,7.97357,4.79059
eth,Ethiopian Sign Language,38.85339,8.9761
etn,Eton,168.54926,-17.73995
eto,Eton,11.39348,4.21045
etr,Edolo,142.65007,-6.11618
ets,Yekhee,6.44919,7.10204
etu,Ejagham,8.66317,5.46344
etz,Semimi,134.45355,-3.71553
eur,Europanto,4.348,50.847
eve,Even,130.91417,70.6687
evh,Uvbie,5.77303,5.44263
evn,Evenki,119.52452,48.47684
ewe,Éwé,0.63453,6.14219
ewo,Ewondo,11.63646,3.16141
ext,Extremaduran,-6.10179,39.19261
eya,Eyak,-144.76186,60.4232
eze,Uzekwe,8.31399,6.58841
faa,Fasu,143.28359,-6.62687
fab,Fa D'ambu,5.61879,-1.43033
fad,Wagi,145.72582,-5.17834
faf,Fagani,161.6618,-10.44791
fag,Finongan,146.62868,-6.33005
fah,Fali of Baissa,10.76837,7.38023
fai,Faiwol,141.65597,-5.4967
fak,Fang,10.319,6.54384
fal,South Fali,13.61642,9.51408
fam,Fam,10.50499,7.54277
fni,Fania,18.75001,10.29104
fng,Fanagalo,23.83326,-30.42065
fap,Palor,-16.95567,14.86283
far,Fataleka,160.86142,-8.59041
fqs,Fas,141.64043,-3.10868
faj,Faita,145.29785,-5.59947
fau,Fayu,136.86713,-3.14497
fax,Fala,-6.91452,40.16511
fay,Southwestern Fars,52.267,29.746
faz,Northwestern Fars,52.925,29.643
fcs,Quebec Sign Language,-74.87193,45.99654
fer,Feroge,25.7171,8.61612
fgr,Fongoro,22.56115,11.31789
fia,Nobiin,30.72549,21.15708
fie,Fyer,9.29503,9.49936
fil,Filipino,123.464,12.265
fin,Finnish,26.33121,64.22287
fip,Fipa,31.34415,-7.88963
fir,Firan,8.69095,9.65245
fit,Tornedalen Finnish,22.07959,67.67032
fiw,Fiwaga,143.64603,-6.66342
fiz,Izere,9.09741,9.93195
fij,Fijian,179.24208,-16.55711
fkv,Kven Finnish,29.54336,69.37724
fla,Kalispel-Pend D'oreille,-114.18987,47.58251
flh,Foau,139.21267,-3.04582
fli,Fali,13.40867,10.54189
fll,North Fali,13.65675,9.9249
flm,Falam Chin,93.80173,22.95499
fln,Flinders Island,144.25927,-14.18123
flr,Fuliiru,28.98646,-3.04022
fly,Tsotsitaal,27.49549,-25.8633
fmp,Fe'fe',10.14425,5.18158
fmu,Far Western Muria,80.47121,20.17542
fan,Fang,10.42397,1.58538
fon,Fon,2.17144,6.99754
fod,Foodo,1.40486,9.56489
foi,Foi,143.49539,-6.47258
fom,Foma,24.32023,0.88032
for,Fore,145.5065,-6.64473
fos,Siraya,120.31451,22.97767
fpe,Fernando Po Creole English,8.68929,3.53638
frp,Franco-Provençal,5.46856,45.92326
frc,Cajun French,-91.61325,29.68686
frd,Fordata,131.51054,-7.28902
gcr,Guianese Creole French,-52.73359,4.94804
fri,Western Frisian,5.86091,53.143
frk,Frankish,9.98388,52.89596
fur,Friulian,13.04927,46.14732
fra,French,1.71931,46.77921
frq,Forak,146.54121,-5.69079
frr,Northern Frisian,8.58489,54.64087
frs,Eastern Frisian,7.73549,52.97134
frt,Fortsenal,166.93136,-15.44841
zrs,Mairasi,134.07073,-3.4511
fse,Finnish Sign Language,25.06767,60.66099
fsl,French Sign Language,2.1383,48.77208
fss,Finnish-Swedish Sign Language,26.328,62.111
fub,Adamawa Fulfulde,12.82538,6.83331
fuc,Pulaar,-14.05428,13.65338
fud,East Futuna,-178.1315,-14.31169
fue,Borgu Fulfulde,3.03776,9.63334
fuf,Pular,-12.59126,11.48254
fuh,Western Niger Fulfulde,1.94971,13.92109
fui,Bagirmi Fulfulde,17.02445,11.16812
fuj,Ko,31.53992,10.73208
ffm,Maasina Fulfulde,-4.10264,14.91803
fum,Fum,11.10872,6.66524
fun,Fulniô,-37.14017,-9.02591
fuq,Central-Eastern Niger Fulfulde,8.43261,15.09071
fvr,Fur,24.71909,12.77313
fut,Futuna-Aniwa,170.21518,-19.53033
fuu,Furu,20.41995,4.43706
fuv,Nigerian Fulfulde,11.11882,10.99725
fuy,Fuyug,147.31162,-8.6371
fwa,Fwâi,164.9009,-20.68733
fwe,Fwe,24.43151,-17.72372
gqa,Ga'anda,12.6479,10.29554
gab,Gabri,16.62304,9.33955
gaa,Ga,-0.18598,5.65488
gad,Gaddang,121.17735,16.54683
gae,Guarequena,-66.53448,2.44659
gaf,Gende,145.17732,-5.67528
gag,Gagauz,28.72994,46.10561
gah,Alekano,145.38723,-6.03901
gai,Borei,144.71548,-4.08697
gaj,Gadsup,145.99716,-6.31631
gak,Gamkonora,127.50574,1.34308
gal,Galoli,125.95904,-8.61074
gam,Kandawo,144.96617,-5.73674
etx,Eten,8.61443,9.73073
gao,Gants,144.77058,-5.28113
gap,Gal,145.62324,-5.16351
gaq,Gata',82.98397,18.6076
gar,Galeya,150.83581,-9.54137
gas,Adiwasi Garasia,73.14262,24.07116
gat,Kenati,145.8806,-6.74765
gau,Mudhili Gadaba,83.378,18.276
gav,Gabutamon,146.62066,-5.8075
gaw,Nobonob,145.71224,-5.06952
gax,Borana-Arsi-Guji Oromo,39.57604,5.72825
gvp,Pará Gavião,-49.02173,-4.91161
gaz,West Central Oromo,36.73647,8.81391
bza,Bandi,-10.1684,7.73729
gbb,Kaytetye,133.60153,-21.58444
gbc,Garawa,137.72014,-17.4504
gbd,Karadjeri,122.33401,-18.6771
gbe,Niksek,142.45009,-4.82581
gbf,Gaikundi,143.13858,-4.01718
gbg,Gbanziri,20.21089,4.85841
gbh,Defi Gbe,2.68609,6.40718
gbi,Galela,128.44015,2.31461
gbj,Bodo Gadaba,82.77099,18.38575
gbk,Gaddi,76.57127,32.35998
gbl,Gamit,73.68388,21.06965
gbm,Garhwali,78.72009,30.50606
gbn,Mo'da,29.73546,6.1463
gbp,Gbaya-Bossangoa,17.64498,6.61896
gbq,Gbaya-Bozoum,16.46427,5.9879
gbr,Gbagyi,6.90495,9.29842
gbs,Gbesi Gbe,2.0269,6.55911
gbu,Gagadu,132.64324,-12.51761
gbv,Gbanu,17.38868,5.28183
gbx,Eastern Xwla Gbe,2.54987,6.37803
gby,Gbari,7.10757,8.46411
gbz,Zoroastrian Dari,54.44689,31.8161
gcc,Mali,152.21433,-4.71826
gcd,Ganggalida,139.42637,-17.54458
gce,Galice,-120.7501,45.39142
gcf,Guadeloupean Creole French,-61.67671,16.14081
gcl,Grenadian Creole English,-61.69894,12.0067
gcn,Gaina,148.59048,-9.14409
gct,Colonia Tovar German,-67.25787,10.48533
gda,Gade Lohar,78.21868,25.8583
gdb,Pottangi Ollar Gadaba,82.75859,18.5968
gdc,Gugu Badhun,144.46003,-18.49205
gdd,Gedaged,145.78079,-5.18175
gde,Gude,13.40591,10.35013
gdf,Guduf-Gava,13.78934,11.10568
gdg,Ga'dang,121.4552,17.22378
gdh,Gadjerawang,129.15553,-15.47863
gdi,Gundi,15.73342,3.45973
gdj,Gurdjar,141.14513,-17.16528
gdk,Gadang,16.997,10.42499
gdl,Dirasha,37.40259,5.60452
gdm,Laal,17.61425,10.00633
gdn,Umanakaina,149.65773,-9.89671
gdo,Ghodoberi,46.22524,42.74276
gdq,Mehri,51.58382,16.8235
gdr,Wipi,143.06403,-8.79741
gdu,Gudu,12.53591,10.12059
gdx,Godwari,72.846,24.885
gea,Geruma,9.78484,10.4775
geb,Kire,144.71096,-4.25927
gec,Gboloo Grebo,-7.66699,4.75405
ged,Gade,7.49869,8.71139
gez,Geez,42.19945,5.14596
geg,Gengle,11.95269,8.8956
geh,Hutterite German,-128.84329,55.96244
gei,Gebe,129.42435,-0.07877
gej,Gen,1.63969,6.26618
gek,Yiwom,9.78757,8.97395
gel,Kag-Fer-Jiir-Koor-Ror-Us-Zuksun,4.8387,11.53187
gen,Geman Deng,97.04437,28.47324
kat,Georgian,44.13649,41.64311
geq,Geme,20.66112,8.48359
gse,Ghanaian Sign Language,-0.30274,5.55225
gsg,German Sign Language,7.30478,50.81543
gsl,Gusilay,-16.50265,12.77612
gsm,Guatemalan Sign Language,-90.56666,14.50344
gsn,Gusan,146.67886,-6.28998
gsp,Wasembo,145.96858,-6.01318
gss,Greek Sign Language,23.37624,38.05355
gsw,Schwyzerdütsch,8.46419,47.05157
gta,Guató,-57.28974,-17.86961
gti,Gbati-ri,28.79113,2.98585
gua,Shiki,9.72769,10.52378
gub,Guajajára,-45.70815,-4.69461
guc,Wayuu,-72.24028,11.52576
gud,Yocoboué Dida,-5.12242,5.40126
gue,Gurinji,130.37933,-17.03293
guf,Gupapuyngu,135.33703,-12.2868
gug,Paraguayan Guarani,-57.08816,-25.60551
guh,Guahibo,-69.72268,5.24162
gui,Eastern Bolivian Guaraní,-62.98948,-20.11726
gvj,Guajá,-46.36829,-3.93574
guk,Gumuz,35.74467,11.08268
gul,Sea Island Creole English,-79.6036,33.66324
gum,Guambiano,-76.58197,2.55849
gun,Mbyá Guaraní,-46.96306,-23.90381
guo,Guayabero,-71.84405,2.8969
gup,Gunwinggu,133.35778,-12.33983
guq,Aché,-56.46968,-25.58653
gur,Farefare,-0.8471,10.78287
gus,Guinean Sign Language,-13.674,9.553
gut,Maléku Jaíka,-84.73181,10.74849
guu,Yanomamö,-65.01963,2.27146
guv,Gey,13.58095,9.37513
deu,Standard German,10.45276,47.45546
ges,Geser-Gorom,130.70133,-3.8016
gew,Gera,10.11999,10.4331
gex,Garre,44.68618,2.29633
gey,Enya,26.74965,-4.67337
gji,Geji,9.64965,10.34776
gfk,Patpatar,152.49294,-3.74711
gft,Gafat,39.56049,11.57637
gga,Gao,159.78866,-8.35163
ggb,Gbii,-8.9346,5.87021
ggd,Gugadj,141.16842,-17.83724
gge,Guragone,134.09501,-12.66855
ggg,Gurgula,68.565,25.737
ggh,Garreh-Ajuran,40.48176,3.15088
ggk,Kungarakany,130.881,-12.7
ggl,Ganglau,146.1305,-5.57945
ggn,Eastern Gurung,84.58145,28.4368
ggo,Southern Gondi,80.27811,20.10446
ggr,Aghu Tharnggalu,142.42646,-13.73495
ggu,Gagu,-5.51851,6.40859
gha,Ghadamès,10.01654,30.11683
ghc,Hiberno-Scottish Gaelic,-5.222,55.932
ghe,Southern Ghale,84.85113,28.10603
ghh,Northern Ghale,84.92899,28.23323
ghk,Geko Karen,96.5308,19.67411
ghl,Ghulfan,29.81219,11.64319
ghn,Ghanongga,156.55189,-8.02035
gho,Ghomara,-4.6696,34.79792
ghr,Ghera,68.368,25.383
ghs,Guhu-Samane,147.22844,-7.99922
ght,Kutang Ghale,84.92999,28.38076
gia,Kitja,127.39201,-17.57584
gib,Gibanawa,8.615,12.584
gic,Gail,26.895,-28.77
gid,Gidar,13.98246,9.92948
gig,Goaria,68.363,27.253
ggt,Gitua,147.48522,-6.0151
gim,Gimi,145.21416,-6.42097
gin,Hinukh,45.80638,42.45022
gip,Gimi,149.47823,-6.02464
gis,North Giziga,14.21903,10.6755
git,Gitxsan,-128.08043,55.09005
gix,Gilima,19.00912,4.5585
giy,Giyug,130.09204,-13.20007
giz,South Giziga,14.1931,10.28092
gjk,Kachi Koli,68.72128,25.34329
guj,Gujarati,71.40448,22.53507
gju,Gujari,74.44145,33.5142
gka,Guya,146.4531,-5.70374
gke,Ndai,14.28884,8.09039
gkn,Gokana,7.34457,4.61889
grc,Ancient Greek,21.91293,39.8155
gkp,Guinea Kpelle,-8.98843,7.93196
dhg,Dhangu,135.75214,-11.94927
gil,Kiribati,-157.37626,1.8812
glc,Bon Gula,19.57745,10.65773
gld,Nanai,136.79144,49.00478
gly,Gule,33.69291,11.83364
gli,Guliguli,157.56369,-8.10266
glh,Northwest Pashayi,69.99362,35.16781
gle,Irish Gaelic,-7.68971,52.00883
glj,Gula Iro,19.5359,10.26705
glk,Gilaki,49.83588,37.13437
glg,Galician,-8.00703,42.77012
glo,Galambu,10.25422,10.12581
glr,Glaro-Twabo,-7.5239,5.46797
gla,Scottish Gaelic,-5.24366,56.75735
glu,Gula,19.21821,10.30493
glw,Glavda,13.86562,11.19519
giw,White Gelao,105.07021,23.01962
giq,Green Gelao,104.69783,22.5632
gio,Gelao,106.2352,26.15447
gir,Red Gelao,104.99252,23.18677
gma,Gambera,126.27131,-14.29546
gmb,Gula'alaa,161.02303,-8.74742
gmd,Mághdì,11.02325,9.2888
gmo,Gamo-Gofa-Dawro,37.13808,6.57645
gmu,Gumalu,145.61809,-5.22189
gmx,Magoma,33.98255,-9.23498
gna,Kaansa,-3.70994,10.16752
gnb,Gangte,93.89714,24.61832
gnc,Guanche,-3.7038,40.43854
gnd,Zulgo-Gemzek,14.05779,10.82696
gng,Ngangam,0.59724,10.06018
gnh,Lere,8.93337,10.47891
gni,Gooniyandi,126.351,-18.40733
gnk,//Gana,22.20026,-21.85547
gnl,Gangulu,149.41605,-22.76366
gnm,Ginuman,149.69988,-10.02977
gnn,Gumatj,136.83042,-12.25254
gnq,Gana,116.14474,5.57583
gnr,Gureng Gureng,151.17468,-25.3893
gnt,Guntai,141.25339,-8.80806
gnu,Gnau,142.1959,-3.59093
gnw,Western Bolivian Guaraní,-64.16621,-20.28192
gnz,Ganzi,19.347,6.544
goa,Guro,-6.31154,7.34954
gob,Playero,-71.00362,6.90948
goc,Gorakor,146.5794,-6.85564
god,Godié,-5.82696,5.3944
goe,Gongduk,91.16861,27.06603
got,Gothic,29.97861,46.9304
gog,Gogo,35.48066,-6.35951
ggw,Gogodala,142.8741,-8.08527
goi,Gobasi,142.20124,-6.48678
goj,Gowlan,77.2647,21.50959
gok,Gowli,77.37332,21.77263
gol,Gola,-10.62816,6.6138
gom,Goanese Konkani,74.20979,15.27325
gno,Northern Gondi,81.38421,18.16323
goo,Gone Dau,178.59889,-16.58861
gop,Yeretuar,134.65553,-3.01713
goq,Gorap,128.26063,2.13058
byh,Bujhyal,84.50684,28.00836
gos,Gronings,6.698,53.28422
cme,Cerma,-4.85222,10.22769
gou,Gavar,13.81878,10.56029
gow,Gorowa,35.79962,-4.23575
gox,Gobu,19.24763,4.90261
goy,Goundo,16.25498,9.46683
goz,Gozarkhani,50.69871,36.41331
gpa,Gupa-Abawa,6.69128,8.21291
gpn,Taiap,144.50616,-4.05047
gqi,Guiqiong,102.12754,30.48028
gqr,Gor,17.0713,8.0841
gra,Rajput Garasia,73.24716,24.54507
gbo,Northern Grebo,-8.1409,5.17103
gvm,Gurmana,6.79456,10.14865
grd,Guruntum-Mbaaru,10.16204,9.87332
xst,Silt'e,38.14491,7.77004
grg,Madi,146.4068,-5.63017
grh,Gbiri-Niragu,8.43157,10.39233
gri,Ghari,159.91736,-9.4791
grj,Southern Grebo,-7.73164,4.50239
ell,Greek,23.32509,37.46921
gor,Gorontalo,122.28765,0.62689
grm,Kota Marudu Talantang,116.85329,6.48554
pdt,Plautdietsch,-107.88438,54.2871
gro,Groma,88.91044,27.5577
grq,Gorovu,144.59021,-4.52947
grr,Taznatit,0.01992,29.11067
grs,Gresi,140.2794,-2.72229
grt,Garo,90.5011,25.62377
gru,Kistane,38.47633,8.33561
grv,Central Grebo,-7.88667,4.88038
grw,Gweda,150.42133,-10.21731
grx,Guriaso,141.59654,-3.5718
gry,Barclayville Grebo,-8.09378,4.67843
grz,Guramalum,152.93332,-4.26666
gsc,Gascon,-0.0777,43.76965
guw,Gun,2.62055,6.51257
gux,Gourmanchéma,1.00775,12.07232
guz,Gusii,34.76751,-0.78872
gva,Guana,-58.06545,-21.98031
gvc,Guanano,-69.49946,1.09898
gve,Duwet,146.84068,-6.45752
gvf,Golin,144.8505,-6.2249
gvl,Gulay,17.31512,9.06629
gvn,Kuku-Yalanji,145.18837,-16.00359
gvo,Gavião do Jiparaná,-61.67521,-10.7235
gvr,Western Gurung,84.31816,28.22054
gvs,Gumawana,150.7623,-9.28497
gvy,Guyani,137.661,-34.739
gwa,Mbato,-3.70421,5.34421
gwb,Gwa,9.11434,10.30688
gwc,Kalami,72.57384,35.53033
gwd,Gawwada,37.2737,5.37869
gwe,Gweno,37.68273,-3.68407
gwf,Gowro,73.12333,35.12434
gwg,Moo,11.20399,9.44081
gwj,/Gwi,21.94314,-22.27083
gwn,Gwandara,7.49931,9.20464
gwr,Gwere,33.82265,1.11392
gwt,Gawar-Bati,71.49753,35.0979
gwu,Guwamu,148.86722,-27.82887
gww,Kwini,126.56181,-14.25155
gwx,Gua,0.16932,6.52106
gxx,Wè Southern,-7.63427,6.50013
gya,Northwest Gbaya,15.23844,6.1024
gyb,Garus,145.68321,-4.9222
gyd,Kayardild,139.48903,-17.06954
gye,Gyem,9.23923,10.41095
gyf,Gungabula,148.60445,-25.68965
gyg,Gbayi,21.97066,5.57378
gyi,Gyele,10.34709,2.82272
gym,Ngäbere,-81.88204,8.68387
gyn,Guyanese Creole English,-58.01247,6.59108
gay,Gayo,97.34556,4.3733
gyr,Guarayu,-61.69335,-15.82467
gyy,Gunya,145.86184,-27.06423
gza,Ganza,35.13733,10.29907
gzi,Gazi,49.45528,34.03574
gzn,Gane,127.97604,-0.42618
haa,Han,-141.29456,64.87146
hab,Hanoi Sign Language,105.8339,21.02446
hac,Gurani,44.4956,36.83768
had,Hatam,134.03715,-1.13531
hae,Eastern Oromo,41.43953,8.67428
haf,Haiphong Sign Language,106.68927,20.8537
hag,Hanga,-1.57833,9.33929
hah,Hahon,154.80129,-5.59031
hdn,Northern Haida,-132.08441,53.97409
haj,Hajong,89.88731,25.52006
hak,Hakka Chinese,114.99321,24.58243
hal,Halang,107.57379,14.60822
ham,Hewa,142.55148,-5.03635
han,Hangaza,30.70739,-2.52347
hao,Hakö,154.59388,-5.06832
hap,Hupla,139.16433,-4.36349
haq,Ha,30.48943,-3.77873
har,Harari,42.13324,9.30485
has,Haisla,-128.60159,53.96401
hat,Haitian Creole French,-73.04597,18.32514
hsf,Southeastern Huastec,-98.08473,21.46145
hav,Havu,28.86235,-1.99975
hwc,Hawai'i Creole English,-155.43698,19.62875
hax,Southern Haida,-132.00834,53.26164
hay,Haya,31.4846,-1.70878
haz,Hazaragi,66.94109,34.35039
hba,Hamba,24.22995,-2.49047
hbo,Ancient Hebrew,35.17248,31.77607
heb,Hebrew,35.01788,31.10565
hbu,Habu,125.96468,-8.76565
hca,Andaman Creole Hindi,92.738,11.676
hch,Huichol,-104.06228,21.95399
hds,Honduras Sign Language,-87.224,14.622
hdy,Hadiyya,37.75771,7.57377
hea,Northern Qiandong Hmong,108.16223,26.63375
hbn,Heiban,30.52819,11.29079
hed,Herdé,14.92668,9.14343
heg,Helong,123.37692,-10.26465
heh,Hehe,35.72547,-7.71572
hei,Heiltsuk,-127.22139,51.70454
hem,Hemba,27.59128,-7.77459
her,Herero,19.19169,-20.69872
hgm,Hai//om,17.02985,-19.76371
hgw,Haigwai,150.25556,-10.27409
hhr,Kerak,-16.68566,12.36518
hia,Lamang,13.7362,11.02429
hib,Hibito,-77.69999,-6.58333
hid,Hidatsa,-102.52777,47.75341
hif,Fijian Hindustani,177.77228,-17.81477
hig,Kamwe,13.51362,10.64603
hih,Pamosu,145.28827,-4.69874
hii,Hinduri,77.144,31.016
hij,Hijuk,10.90806,4.39641
hik,Seit-Kaitetu,128.06828,-3.6111
hil,Hiligaynon,122.97428,10.40179
hnd,Southern Hindko,72.17018,33.21215
hio,Tsoa,25.84771,-22.81806
hir,Himarimã,-64.70047,-6.25217
htu,Hitu,128.18639,-3.57478
hiw,Hiw,166.55592,-13.13907
hix,Hixkaryána,-58.80153,-0.16265
hka,Kahe,37.57586,-3.51412
hke,Hunde,28.93083,-1.46762
hla,Halia,154.66185,-5.26603
hlb,Halbi,81.37417,20.30812
hld,Halang Doan,108.20014,15.03123
hlt,Nga La,94.958,24.429
hma,Southern Mashan Hmong,106.30772,25.33586
hmb,Songhay,0.22932,14.34761
hmc,Central Huishui Hmong,106.71949,26.041
hmd,Northeastern Dian Hmong,104.06038,27.86819
hme,Eastern Huishui Hmong,106.83166,25.9942
hmf,Hmong Don,104.58933,21.52109
hmg,Southwestern Guiyang Hmong,106.00333,26.18029
hmh,Southwestern Huishui Hmong,106.56133,26.04357
hmj,Chonganjiang Hmong,107.82312,26.85419
hml,Luopohe Hmong,107.158,26.81833
hmm,Central Mashan Hmong,106.39604,25.60046
hmi,Northern Huishui Hmong,107.10232,26.32588
hmp,Northern Mashan Hmong,106.53044,25.77231
hmq,Eastern Qiandong Hmong,109.04627,26.49663
hmr,Hmar,93.54971,24.75338
hms,Southern Qiandong Hmong,108.53274,25.6618
hmt,Hamtai,146.22672,-7.54975
hmu,Hamap,124.52187,-8.26749
hmv,Hmong Dô,104.18156,22.79616
hmw,Western Mashan Hmong,106.12205,25.65179
hmy,Southern Guiyang Hmong,106.48084,26.39021
hmz,Hmong Shua,105.08171,23.22649
hna,Mina,13.84054,10.38053
hin,Hindi,79.78701,23.13376
hne,Chhattisgarhi,82.04833,20.36015
hun,Hungarian,19.50894,46.12207
hnh,//Ani,22.90878,-19.09658
hni,Hani,102.78667,22.98235
hnn,Hanunoo,121.2212,12.41589
hno,Northern Hindko,73.3844,34.32024
hns,Caribbean Hindustani,-55.652,5.885
hnu,Hung,104.75588,18.71569
hoa,Hoava,157.59496,-8.19679
hob,Mari,145.82807,-5.97399
hoc,Ho,85.78569,22.2824
hod,Holma,13.19949,9.96843
hoe,Horom,8.98482,9.05742
hoh,Hobyót,52.95819,17.24559
hoi,Holikachuk,-159.83143,62.72662
hoj,Harauti,75.83659,24.85464
hol,Holu,17.63483,-8.30943
hom,Homa,28.00387,4.97912
hoo,Holoholo,28.32738,-5.37545
hop,Hopi,-110.53483,35.76526
hor,Horo,18.378,9.239
hos,Ho Chi Minh City Sign Language,106.68073,10.78646
hot,Hote,146.86873,-7.07708
hov,Hovongan,113.89708,0.9841
how,Honi,101.8863,23.20739
hoy,Holiya,79.91637,21.52593
hoz,Hozo,34.60448,9.38875
hpo,Hpon,97.11423,24.46064
hps,Hawaii Pidgin Sign Language,-158.00179,21.63107
hra,Hrangkhol,93.54098,23.82421
hre,Hre,108.69418,14.63082
hrk,Haruku,128.47559,-3.57029
hro,Haroi,108.99547,13.22009
hrr,Horuru,129.38675,-3.12875
hrt,Hertevin,42.51921,37.37301
hru,Hruso,92.63,27.27
hrz,Harzani,48.28478,38.43411
hsh,Hungarian Sign Language,19.264,47.122
hsl,Hausa Sign Language,7.168,8.486
hsn,Xiang Chinese,111.47112,27.66847
hss,Harsusi,56.15619,19.6511
hti,Hoti,130.16796,-3.0083
hto,Minica Huitoto,-73.61014,-0.53252
hts,Hadza,35.04583,-3.83115
hau,Hausa,7.18939,11.91098
hub,Huambisa,-77.97965,-3.99109
huc,‡Hua,24.69828,-23.93447
ivb,Ibatan,121.90888,18.93984
ivv,Ivatan,121.97521,20.38479
iwk,I-Wak,120.78633,16.30448
iwm,Iwam,141.81705,-4.27346
iwo,Iwur,140.82271,-5.11036
iws,Sepik Iwam,142.11683,-4.30928
ixc,Ixcatec,-97.12415,17.75974
ixi,Nebaj Ixil,-91.18849,15.52292
ixj,Chajul Ixil,-90.97619,15.58022
hud,Huaulu,129.20169,-2.95835
hue,San Francisco del Mar Huave,-94.57383,16.28361
huf,Humene,147.56221,-9.70693
hug,Huachipaeri,-71.22749,-13.31951
huh,Huilliche,-72.76697,-40.06939
hui,Huli,142.96326,-5.97212
huj,Northern Guiyang Hmong,106.68224,26.72377
huk,Hulung,128.58693,-2.87389
hul,Hula,147.70512,-9.99427
hum,Hungana,18.43121,-3.69695
huo,Hu,100.88061,22.01635
hup,Hupa,-123.67988,41.09821
huq,Tsat,109.33558,18.31917
hur,Halkomelem,-123.66296,48.7911
hus,Veracruz Huastec,-98.50276,21.6153
hut,Humla,81.56591,30.14514
huu,Murui Huitoto,-73.84075,-1.51775
huv,San Mateo del Mar Huave,-95.00766,16.21295
huw,Hukumina,126.194,-3.274
hux,Nüpode Huitoto,-70.95587,-2.34495
huy,Hulaula,35.01938,31.7107
huz,Hunzib,46.13691,42.08076
hva,San Luís Potosí Huastec,-99.00083,21.8394
hvc,Haitian Vodoun Culture Language,-72.394,18.911
hve,San Dionisio del Mar Huave,-94.7001,16.35137
hvn,Sabu,121.84682,-10.5522
hvv,Santa María del Mar Huave,-94.81586,16.21669
hwa,Wané,-6.44406,4.85171
haw,Hawaiian,-155.42995,19.62965
hwo,Hwana,12.76825,10.3633
hya,Hya,13.55888,10.49393
iai,Iaai,166.59048,-20.63012
ian,Iatmul,143.31566,-4.30064
iap,Iapama,-53.32686,0.97588
iar,Purari,145.03551,-7.59133
iba,Iban,112.46189,1.82601
ibb,Ibibio,7.86688,5.15279
ibd,Iwaidja,132.45337,-11.33788
ibe,Akpes,5.95559,7.50256
ibg,Ibanag,121.89093,17.42014
ibl,Ibaloi,120.69508,16.42625
ibm,Agoi,8.21629,5.87953
ibn,Ibino,8.15254,4.59603
ibi,Ibilo,6.08384,7.42662
ibr,Ibuoro,7.93108,5.49672
ibu,Ibu,127.54233,1.50556
iby,Ibani,7.23558,4.49119
ica,Ede Ica,1.82137,8.46128
isl,Icelandic,-19.02117,63.48375
ich,Etkywan,10.35011,7.13773
icl,Icelandic Sign Language,-20.27305,64.17306
icr,Islander Creole English,-81.70425,12.55352
ida,Idakho-Isukha-Tiriki,34.81704,0.21557
idb,Indo-Portuguese,81.67875,7.71975
idc,Idon,7.78151,10.21749
idd,Ede Idaca,2.27039,7.78428
ide,Idere,8.0831,5.21188
idi,Idi,142.30075,-8.75976
idu,Idoma,7.71261,7.19139
idr,Indri,25.98485,8.81513
ids,Idesa,6.2929,7.34629
idt,Idaté,125.83176,-8.76258
ifa,Amganad Ifugao,121.0422,16.90155
ifb,Batad Ifugao,121.23011,16.82656
ife,Ifè,1.38621,7.36855
iff,Ifo,169.00732,-18.76682
ifk,Tuwali Ifugao,121.11348,16.66464
ifm,Teke-Fuumu,15.50605,-3.59003
ifu,Mayoyao Ifugao,121.29005,16.99837
ify,Keley-I Kallahan,121.03484,16.70985
igb,Ebira,7.06183,8.15516
ige,Igede,8.27362,6.95522
igg,Igana,144.84075,-4.70942
igl,Igala,7.17974,7.34325
igm,Kanggape,144.81601,-4.4153
ign,Ignaciano,-65.39934,-15.11882
igo,Isebe,145.69081,-5.20719
ibo,Igbo,7.23441,4.62705
igw,Igwe,6.08157,7.10878
ihb,Iha Based Pidgin,132.294,-2.935
ihi,Ihievbe,6.08581,7.00917
ihp,Iha,132.27102,-2.81013
iii,Sichuan Yi,102.12119,28.19474
ijc,Izon,5.51702,5.17986
ije,Biseni,6.51646,5.40296
ijj,Ede Ije,2.64262,7.09729
ijn,Kalabari,6.69539,4.53194
ijs,Southeast Ijo,6.32192,4.44235
iki,Iko,7.9866,4.56197
ikk,Ika,6.31058,6.36423
iko,Olulumo-Ikom,8.56546,5.97709
ikp,Ikpeshi,6.17647,7.04475
ikl,Ikulu,7.86684,10.13393
ikv,Iku-Gora-Ankwa,7.84105,10.27852
ikw,Ikwere,6.86651,5.04333
ikx,Ik,34.25066,3.61407
ikz,Ikizu,34.35893,-1.9915
ila,Ile Ape,123.44173,-8.38636
ilb,Ila,26.45548,-15.60807
ilv,Ilue,8.25236,4.78618
ilg,Garig-Ilgar,132.18174,-11.41198
ili,Ili Turki,80.64616,43.98761
ilk,Ilongot,121.54727,16.37846
ill,Iranun,118.2235,4.3362
ilo,Ilocano,120.99329,15.93614
ilu,Ili'uun,125.90186,-7.84385
ilw,Talur,126.33592,-7.88553
ime,Imeraguen,-16.34726,19.37331
imi,Anamgura,144.99148,-4.63762
imn,Imonda,141.1713,-3.31228
imo,Imbongu,144.02573,-6.13629
imr,Imroing,129.65091,-7.96772
inp,Iñapari,-69.30827,-12.46525
inb,Inga,-76.86062,1.00313
bfh,Blafe,141.22623,-8.56161
inz,Ineseno,-119.711,34.429
ing,Degexit'an,-160.04427,62.0697
inh,Ingush,44.15799,42.95255
inj,Jungle Inga,-76.65931,0.88872
inl,Indonesian Sign Language,112.378,-7.908
inn,Isinai,121.12014,16.32993
ino,Inoke-Yate,145.53907,-6.32311
ina,Interlingua,2.615,48.203
ins,Indian Sign Language,77.40423,27.279
int,Intha,96.93882,20.39204
ind,Indonesian,109.71572,-7.33458
ior,Inor,37.79684,7.94883
iou,Tuma-Irumu,146.60922,-6.29221
iow,Iowa-Oto,-95.52135,40.05114
ipi,Ipili,143.08884,-5.42586
ipo,Ipiko,144.8632,-7.37424
iqu,Iquito,-73.97046,-3.31233
irn,Irántxe,-57.98063,-12.71782
ire,Iresim,135.02456,-3.62803
irh,Irarutu,133.58624,-2.94438
iri,Irigwe,8.6525,9.85197
irk,Iraqw,35.29393,-4.19948
irr,Ir,106.56415,15.71875
iru,Irula,79.95209,12.70645
irx,Kamberau,133.51841,-3.53189
iry,Iraya,120.64995,13.38103
isa,Isabi,145.46204,-5.83809
isc,Isconahua,-74.51927,-7.75236
isd,Isnag,121.1599,18.21387
ise,Italian Sign Language,12.42949,42.72915
isg,Irish Sign Language,-6.36541,53.31499
ish,Esan,6.33917,6.25685
isi,Nkem-Nkum,8.68668,6.59158
isr,Israeli Sign Language,34.76366,31.5279
ism,Masimasi,139.04018,-2.00717
isn,Isanzu,34.846,-3.99991
iso,Isoko,6.24682,5.52889
ist,Istriot,13.64,45.088
isu,Isu,9.96577,6.63731
itb,Binongan Itneg,120.87563,17.59722
ite,Itene,-64.98409,-12.29945
iti,Inlaod Itneg,120.65389,17.61752
itk,Judeo-Italian,11.47233,43.12845
itl,Itelmen,156.90623,56.77984
itm,Itu Mbon Uzo,7.80378,5.52679
ita,Italian,12.97622,42.609
ito,Itonama,-64.35748,-12.80431
itr,Iteri,141.58528,-4.11998
its,Isekiri,5.5862,5.81898
itt,Maeng Itneg,120.71816,17.24531
itu,Itutang,144.88352,-4.61602
itv,Itawit,121.5796,17.73286
itw,Ito,8.04626,5.14438
itx,Itik,139.34115,-2.18342
ity,Moyadan Itneg,120.70173,17.42321
itz,Itzá,-89.87338,17.02694
ium,Iu Mien,110.31542,24.42413
ixl,San Juan Cotzal Ixil,-90.89351,15.45693
iya,Iyayu,5.68537,7.38143
iyo,Mesaka,9.8723,6.32679
iyx,Yaka,13.36366,-3.73301
izh,Ingrian,29.71145,59.47403
izi,Izi-Ezaa-Ikwo-Mgbo,8.03044,6.31831
jaa,Jamamadí,-66.56619,-7.62223
jab,Hyam,7.95163,9.37832
jac,Eastern Jacalteco,-91.66327,15.66095
jad,Jahanka,-14.40663,10.80654
jae,Yabem,147.80997,-6.67052
jaf,Jara,11.70359,10.52325
jah,Jah Hut,102.2913,3.67619
jai,Western Jacalteco,-91.77069,15.72465
jaj,Zazao,159.25532,-8.18719
jak,Jakun,103.34214,2.64582
jal,Yalahatan,129.31549,-3.3619
jam,Jamaican Creole English,-77.27348,18.11864
jav,Javanese,111.07143,-7.40618
jao,Yanyuwa,136.05506,-15.76212
jap,Jaruára,-65.44134,-7.42116
jaq,Yaqay,139.24945,-6.66632
jar,Jarawa,10.21664,9.42456
jas,New Caledonian Javanese,166.4449,-22.3001
jat,Jakati,37.3,48.616
jau,Yaur,134.87891,-3.32519
jdg,Jadgali,67.43591,26.01136
jda,Jad,79.153,30.241
jax,Jambi Malay,103.12993,-2.6469
jay,Jarnango,134.87665,-12.08531
jaz,Jawe,164.67594,-20.66477
jbe,Judeo-Berber,34.97483,32.55935
jbj,Arandai,132.98337,-2.08016
jbn,Nafusi,11.82876,31.95294
jbt,Jabutí,-64.66937,-12.03802
jbu,Jukun Takum,10.50812,6.86367
jcs,Jamaican Country Sign Language,-76.93205,17.99968
jct,Judeo-Crimean Tatar,66.3805,39.84121
jeb,Jebero,-76.41032,-5.40317
jee,Jerung,86.25468,27.17411
jeg,Jeng,107.14659,15.03918
jeh,Jeh,107.89563,15.19845
jei,Yei,140.86307,-7.87489
jek,Jeri Kuo,-5.66717,9.3957
jel,Yelmek,139.09633,-7.4453
jen,Dza,11.38838,9.26671
jer,Jere,8.95834,10.19625
jet,Manem,141.01991,-2.99145
jeu,Jonkor Bourmataguil,19.09535,11.50342
jge,Judeo-Georgian,35.11371,31.74069
jhi,Jehai,101.54145,5.63695
jia,Jina,14.9611,11.35547
jib,Jibu,11.30864,7.49214
jic,Tol,-87.03719,14.66859
jid,Bu,8.65697,9.05077
jie,Jilbe,14.57944,11.79919
jig,Djingili,133.65904,-17.16504
jih,Shangzhai,102.63,32.225
jii,Jiiddu,44.12938,1.84353
jil,Jilim,145.70602,-5.56611
jim,Jimi,13.52578,10.25105
jio,Jiamao,109.85372,18.55481
jiq,Guanyinqiao,101.9276,31.56552
jit,Jita,33.91413,-1.62681
jiu,Buyuan Jinuo,101.05697,22.04726
jiv,Shuar,-78.18923,-3.45136
jiy,Buyuan Jinuo,101.08,22
jko,Kubo,142.18292,-5.92584
jku,Labir,9.59527,10.48469
jma,Dima,149.60524,-9.70322
jmb,Zumbun,9.9683,10.82701
jmc,Machame,37.07033,-3.29385
jmd,Yamdena,131.44018,-7.73722
jmi,Jimi,9.8118,10.72987
jmk,Jamtska,14.183,63.054
jml,Jumli,82.437,29.17076
jmr,Kamara,-2.34944,8.93891
jms,Mashi,10.27783,6.91719
jmx,Western Juxtlahuaca Mixtec,-98.2096,17.30034
jna,Jangshung,78.43438,31.56656
jnd,Jandavra,69.76,25.617
jng,Yangman,132.52004,-14.49642
jni,Janji,8.63029,10.11968
jnj,Yemsa,37.44117,7.79821
jnl,Rawat,80.81502,30.04702
jns,Jaunsari,77.90842,30.5587
job,Joba,28.99784,-3.45787
jod,Wojenaka,-7.6104,9.72582
jor,Jora,-63.20942,-15.74923
jos,Jordanian Sign Language,36.0829,31.82024
jow,Jowulu,-5.47873,10.76912
jpn,Japanese,136.46904,35.35084
jqr,Jaqaru,-75.89576,-12.88233
jra,Jarai,108.14356,13.69433
jrr,Jiru,10.58721,8.64125
jrt,Jorto,9.42486,8.93055
jru,Japrería,-72.71012,10.55231
jsl,Japanese Sign Language,139.07918,36.02213
jua,Júma,-64.09979,-7.27501
jub,Wannu,8.96594,7.83859
juc,Jurchen,121.6101,29.58316
jud,Worodougou,-6.72244,8.23453
juh,Hõne,10.92061,9.79715
juk,Wapan,9.83299,7.97862
jul,Jirel,86.32005,27.69311
jum,Jumjum,33.74936,10.4349
jun,Juang,85.58452,21.26064
juo,Jiba,11.50987,9.26508
jup,Hupdë,-69.98387,0.46252
jur,Jurúna,-53.34717,-10.93541
jut,Jutish,9.38924,54.91105
juu,Ju,9.81175,10.18448
juw,Wãpha,9.90381,9.10829
juy,Juray,84.12038,19.09102
jvn,Caribbean Javanese,-55.42758,5.67057
jwi,Jwira-Pepesa,-2.10891,5.10752
jya,Jiarong,102.22875,31.60295
jye,Judeo-Yemeni Arabic,34.80468,32.0235
jyy,Jaya,17.94151,12.3707
ksk,Kansa,-96.85712,36.80439
kbd,Kabardian,43.39182,43.50822
kaa,Karakalpak,59.53703,43.29122
kad,Kadara,7.45933,9.99696
kae,Ketangalan,121.42537,25.02571
kag,Kajaman,113.88626,2.78613
kah,Kara,22.99468,9.99526
kai,Karekare,10.87324,12.5176
kaj,Jju,7.97167,9.83116
kak,Kayapa Kallahan,120.90003,16.321
kyl,Kalapuya,-123.92463,44.98615
tsw,Tsishingini,5.11073,10.2882
xnn,Northern Kankanay,120.78649,17.10573
kao,Xaasongaxango,-10.66986,14.18052
kap,Bezhta,46.03319,42.1206
kaq,Capanahua,-74.38135,-6.63254
xrb,Eastern Karaboro,-4.52253,10.49875
xsm,Kasem,-1.24065,11.25817
xtc,Katcha-Kadugli-Miri,29.49142,10.84227
cdr,Cinda-Regi-Tiyal,5.84212,10.34189
kav,Katukína,-70.38221,-8.19121
xaw,Kawaiisu,-118.67889,36.05383
kax,Kao,127.84662,1.16654
kay,Kamayurá,-53.46514,-12.26606
kaz,Kazakh,66.90226,43.95029
kba,Kalarko,118.91114,-31.71542
kbb,Kaxuiâna,-55.91008,2.17138
kbc,Kadiwéu,-57.58202,-19.72224
xbx,Kabixí,-58.9931,-14.24031
kbe,Kanju,142.89266,-13.32427
kbf,Kakauhua,-72.3228,-39.04876
kbg,Khamba,95.236,28.731
kbh,Camsá,-76.8931,1.14537
kbj,Kari,25.74914,5.03525
kbk,Grass Koiari,147.43743,-9.51218
kbl,Kanembu,14.84371,13.87489
kbm,Iwal,146.98309,-7.20938
kbn,Kare,16.04101,6.82051
kbo,Keliko,30.67453,3.75752
kbp,Kabiyé,1.076,7.17146
kbq,Kamano,145.72827,-6.25829
kbr,Kafa,36.17183,7.34022
kbs,Kande,11.70762,-0.00776
kbt,Abadi,146.9919,-9.03389
kbu,Kabutra,69.691,25.292
kbv,Dera,140.94739,-3.52309
kbw,Kaiep,143.88443,-3.70524
kbx,Ap Ma,144.08524,-4.35147
kby,Manga Kanuri,10.551,13.9977
kbz,Duhwa,8.77995,9.32586
kca,Khanty,66.12177,62.43083
kcb,Kawacha,146.20897,-6.96411
kcc,Lubila,8.29204,5.46011
kcd,Ngkâlmpw Kanum,140.81838,-8.87044
kce,Kaivi,8.10795,10.43276
kcf,Ukaan,6.03933,7.59722
kcg,Tyap,8.3082,9.75568
kch,Vono,8.20774,10.43572
kci,Kamantan,7.7119,9.85455
kcj,Kobiana,-16.06181,12.43303
kck,Kalanga,27.95131,-21.42932
kcl,Kela,147.1729,-7.47103
kcm,Gula,22.32378,9.72836
kcn,Nubi,32.51228,0.58251
kco,Kinalakna,147.44249,-6.05862
kcp,Kanga,29.34628,11.01742
kcq,Kamo,11.27125,10.06018
kcr,Katla,29.28254,11.80325
kcs,Koenoem,9.46622,9.01129
kct,Kaian,144.75613,-4.06543
kcu,Kami,37.98003,-6.71075
kcv,Kete,22.90271,-7.15104
kcw,Kabwari,29.16838,-4.36966
kcx,Kachama-Ganjule,37.92915,6.3971
kcy,Korandje,-2.48113,29.49571
kcz,Konongo,32.18028,-6.51503
kda,Worimi,152.10658,-32.48064
kdc,Kutu,37.86225,-7.23789
kdd,Yankunytjatjara,133.57684,-26.40642
kde,Makonde,39.6133,-10.29823
kdf,Mamusi,151.03275,-5.84776
kdg,Seba,27.51438,-11.9396
kdh,Tem,1.11083,8.42644
kdi,Kumam,33.21164,1.74748
kdj,Karamojong,34.27614,2.45157
kdk,Numee,166.70499,-22.26887
kdl,Tsikimba,4.88739,9.60496
kdm,Kagoma,8.18694,9.22607
kdn,Kunda,30.62204,-16.15728
kir,Kirghiz,74.29227,41.73308
kdp,Kaningdon-Nindem,8.27644,9.525
kdq,Koch,90.70026,26.18221
kdr,Karaim,25.10545,54.5534
kds,Lahu Shi,102.555,20.207
kdt,Kuy,103.77955,14.70164
kdu,Kadaru,30.2709,12.15545
kdv,Kado,95.41487,24.33101
kdw,Koneraw,138.0675,-8.37424
kdx,Kam,10.88653,8.04357
kdy,Keder,139.0811,-2.03589
kdz,Kwaja,10.99428,6.63304
kea,Kabuverdianu,-23.61476,15.05863
keb,Kélé,10.38358,-0.78854
kec,Keiga,29.38894,11.20644
ked,Kerewe,33.53259,-2.09315
kee,Eastern Keres,-106.45285,35.52158
kef,Kpessi,1.21078,8.05471
keg,Tese,29.5803,11.38855
kei,Kei,133.02009,-5.63948
kej,Kadar,76.72846,11.0602
kek,Kekchí,-89.76169,15.95051
kel,Kela,24.00506,-1.39085
kem,Kemak,125.19933,-8.94331
ken,Kenyang,9.55918,5.58288
keo,Kakwa,30.9754,3.47351
kep,Kaikadi,76.00027,18.38594
keq,Kamar,81.9101,20.53419
ker,Kera,15.1763,9.76605
kes,Kugbo,6.56333,4.72951
ket,Ket,87.54663,63.75506
keu,Akebu,0.77668,7.78365
kev,Kanikkaran,77.2465,8.44163
kew,West Kewa,143.72984,-6.32097
kex,Kukna,73.57127,20.5657
key,Kupia,79.51532,16.47079
kez,Kukele,8.39343,6.70286
kfa,Kodagu,75.91608,12.24429
kfb,Northwestern Kolami,78.49338,20.10216
kfc,Konda-Dora,82.93402,18.26754
kfd,Korra Koraga,75.19999,12.91628
kfe,Kota,76.93865,11.4978
kff,Koya,81.20964,17.6772
kfg,Kudiya,75.48962,12.33014
kfh,Kurichiya,75.52034,11.82263
kfi,Kurumba,76.52555,11.38236
kfj,Kemiehua,101.14386,22.06028
kfk,Kinnauri,78.31478,31.36883
kfl,Kung,10.20727,6.53881
kfm,Khunsari,49.37419,36.69633
kfn,Kuk,10.18407,6.43762
kfo,Koro,-5.73572,8.11966
kfp,Korwa,83.81422,23.41015
kfq,Korku,77.55409,21.83579
kfr,Kachchi,69.75836,23.35926
kfs,Bilaspuri,76.67385,31.3842
kft,Kanjari,74.7355,25.69995
kfu,Katkari,73.17329,18.96695
kfv,Kurmukar,90.879,26.244
kfw,Kharam Naga,87.91733,26.14877
kfx,Kullu Pahari,77.37721,31.83388
kfy,Kumauni,79.6753,29.6756
kfz,Koromfé,-1.83151,13.89457
kga,Koyaga,-6.23255,8.29177
kgb,Kawe,130.32696,-0.17313
kgc,Kasseng,107.35139,15.25616
kgd,Kataang,106.4588,16.18229
kge,Komering,105.10712,-3.79215
kgf,Kube,147.5358,-6.42586
kgg,Kusunda,80.63092,29.17663
kgh,Upper Tanudan Kalinga,121.20222,17.2143
kgi,Selangor Sign Language,101.61389,3.13489
kgj,Gamale Kham,82.6749,28.41102
kgk,Kaiwá,-54.96155,-22.64462
kgl,Kunggari,143.22246,-24.21819
kgm,Karipuna,-52.96666,2.08332
kgn,Karingani,47.43288,38.5656
kgo,Krongo,30.00302,10.51395
kgp,Kaingáng,-52.53937,-27.76708
kgq,Kamoro,135.88268,-4.30433
kgr,Abun,132.4159,-0.57073
kgs,Kumbainggar,152.91311,-29.81891
kgt,Somyev,11.48262,6.90525
kgv,Karas,132.67789,-3.47037
kgw,Karon Dori,132.66326,-0.7871
kgx,Kamaru,123.04494,-5.15696
kgy,Kyerung,85.38778,28.21382
xal,Kalmyk-Oirat,45.42443,46.75922
knk,Kuranko,-11.15474,9.38995
khb,Lü,101.02884,21.76142
khc,Tukang Besi North,123.57825,-5.30994
khd,Bädi Kanum,140.75291,-8.85301
khe,Korowai,139.82795,-5.28219
khf,Khuen,101.29304,20.8388
khg,Khams Tibetan,91.70618,31.93126
khh,Kehu,136.13974,-3.19328
kha,Khasi,92.00194,25.56573
khj,Kuturmi,7.96524,10.14852
khk,Halh Mongolian,105.69295,46.17193
khl,Lusi,149.14807,-5.55033
xla,Kamula,142.63931,-7.28798
khn,Khandesi,74.14197,21.31807
xuo,Kuo,15.55714,8.00754
khp,Kapori,139.76623,-3.52696
khq,Koyra Chiini Songhay,-3.73962,16.19202
khr,Kharia,84.39219,22.35712
khs,Kasua,142.99338,-6.64861
kht,Khamti,97.86994,27.4964
khu,Nkhumbi,13.97037,-15.41256
khv,Khvarshi,45.99765,42.27434
khw,Khowar,72.46571,36.20286
khx,Kanu,28.10169,-1.82559
khy,Kele,24.30977,0.36906
khz,Keapara,147.94966,-10.13422
kia,Kim,15.89359,9.79442
kib,Koalib,30.47166,11.69648
kic,Kickapoo,-95.67346,39.70772
kid,Koshin,10.29904,6.5817
kie,Kibet,20.87674,11.32054
kif,Eastern Parbate,82.95235,28.52593
kig,Kimaama,138.35508,-8.01899
kih,Kilmeri,141.19097,-2.88607
kii,Kitsai,-103.85569,36.05055
kij,Kilivila,151.0724,-8.72574
kam,Kamba,37.95319,-1.60827
kil,Kariya,9.63992,11.01194
kim,Karagas,98.37923,53.7145
xte,Ketengban,140.44268,-4.50417
kio,Kiowa,-98.90424,34.94026
kip,Sheshi Kham,82.64667,27.94373
kiq,Kosadle,140.19727,-3.78748
hbb,Huba,13.13902,10.35439
kis,Kis,143.95983,-3.83909
kit,Agob,142.53159,-9.08521
kik,Gikuyu,36.71901,-0.29005
kiv,Kimbu,33.64451,-7.23023
kiw,Northeast Kiwai,144.66697,-7.39215
kiy,Kirikiri,137.282,-3.18494
kiz,Kisi,34.48254,-9.93
kja,Mlap,140.26386,-2.57316
kjb,Eastern Kanjobal,-91.3043,15.68455
kjc,Coastal Konjo,120.30398,-5.41532
kjd,Southern Kiwai,143.24381,-8.64889
kje,Kisar,127.18035,-8.05122
kjf,Khalaj,50.30258,34.41979
kjg,Khmu,102.47189,19.346
kjh,Khakas,90.1511,53.4132
kji,Zabana,158.75344,-7.74311
kjj,Khinalugh,48.05714,41.18014
kjk,Highland Konjo,119.9278,-5.26559
kjl,Western Parbate,82.73479,28.65214
kjm,Kháng,103.73637,21.66243
kjn,Kunjen,143.52986,-16.68067
kjo,Harijan Kinnauri,77.064,31.784
kjp,Pwo Eastern Karen,97.748,16.253
kjq,Western Keres,-107.51744,34.97325
kjr,Kurudu,137.0182,-1.8444
kjs,East Kewa,143.93088,-6.32989
kjt,Phrae Pwo Karen,99.63822,18.00483
kju,Kashaya,-74.10057,40.74169
kan,Kannada,76.11983,13.58785
kjx,Ramopa,154.89958,-5.97015
kjy,Erave,143.91778,-6.55011
kjz,Bumthangkha,90.80367,27.64941
kka,Kakanda,6.55923,8.33931
kkb,Kwerisa,138.1346,-2.99145
kkc,Odoodee,142.48602,-6.59222
kkd,Kinuku,8.1296,10.35235
kke,Kakabe,-11.44178,10.59616
kkg,Mabaka Valley Kalinga,121.07311,17.66834
kkh,Khün,99.77897,20.58365
kki,Kagulu,37.05341,-6.38204
kkj,Kako,14.43822,4.14191
kkk,Kokota,159.19133,-8.16481
kkl,Kosarek Yale,139.64513,-4.06603
kkm,Kiong,8.35234,5.20497
kor,Korean,127.85022,36.62492
kko,Karko,29.20738,12.05423
kkp,Gugubera,141.63541,-15.42958
kkq,Kaiku,28.73938,0.75068
kkr,Kir-Balar,9.77003,10.14563
kks,Giiwo,10.46037,10.35754
kkt,Koi,86.85308,27.19407
kku,Tumi,8.10378,10.51129
kkv,Kangean,112.96754,-7.98335
kkw,Teke-Kukuya,14.44074,-2.27122
kkx,Kohin,111.90514,-1.43973
kky,Guguyimidjir,144.83085,-14.9424
kkz,Kaska,-132.41246,61.99422
kla,Klamath-Modoc,-121.70403,42.58608
klb,Kiliwa,-115.123,30.54713
klc,Kolbila,13.27068,8.26797
kld,Gamilaraay,149.54301,-29.90374
kle,Kulung,86.94938,27.52415
klf,Kendeje,21.53955,13.24447
klg,Tagakaulu Kalagan,125.42625,6.45338
klh,Weliki,147.13733,-5.98588
kli,Kalumpang,119.47352,-2.33388
klj,Turkic Khalaj,50.32223,34.42237
klk,Kono,8.32193,10.43598
kll,Kagan Kalagan,125.60962,7.10698
klm,Kolom,146.21223,-5.57832
kln,Kalenjin,35.92363,-0.02158
klo,Kapya,10.09794,7.03256
klp,Kamasa,146.20897,-6.96411
klq,Rumu,144.17851,-7.17149
klr,Khaling,86.74767,27.71236
kls,Kalasha,71.66575,35.64151
klt,Nukna,146.9685,-6.0177
klu,Klao,-8.85937,5.02173
klv,Maskelynes,167.81794,-16.50734
klw,Lindu,120.06304,-1.35748
klx,Koluwawa,150.46185,-9.42742
kly,Kalao,120.99456,-7.31213
klz,Kabola,124.53869,-8.17316
kma,Konni,-1.54376,10.23684
gmn,Gimnime,12.78694,8.58129
kmc,Southern Dong,109.22191,25.8874
kmd,Madukayang Kalinga,121.23579,17.17939
kme,Bakole,8.97387,4.43654
kmf,Kare,145.49889,-5.07674
kmg,Kâte,147.75695,-6.4795
kmh,Kalam,144.58514,-5.25216
kmi,Kami,6.66088,8.57444
kmj,Kumarbhag Paharia,87.26985,24.1217
kmk,Limos Kalinga,121.38057,17.60813
kml,Lower Tanudan Kalinga,121.31148,17.34407
kmm,Kom,94.53404,24.8688
kmn,Awtuw,141.92796,-3.53129
kmo,Kwoma,142.66438,-4.08721
kmp,Gimme,12.66584,8.58084
kmq,Kwama,34.24567,9.50836
khm,Central Khmer,104.49337,11.4549
kms,Kamasau,143.84222,-3.8503
kmt,Kemtuik,140.37182,-2.64894
kmu,Kanite,145.55598,-6.38841
kmv,Karipúna Creole French,-51.68875,3.42825
kmw,Komo,26.71444,-0.76333
kmx,Waboda,143.50149,-8.41651
kmy,Koma,12.65088,8.71706
kmz,Khorasani Turkish,60.02772,36.4438
kna,Dera,12.02564,10.07198
knb,Lubuagan Kalinga,121.0365,17.3879
kzh,Kenuzi-Dongola,30.84872,18.09597
knd,Konda,132.05952,-1.82635
kne,Kankanaey,120.68924,16.8548
uun,Kulon-Pazeh,120.97577,23.75624
knh,Kayan River Kenyah,115.95098,2.19262
kni,Kanufi,8.27644,9.525
knj,Western Kanjobal,-91.60773,15.66007
knn,Konkani,73.91659,19.24143
knl,Keninjal,111.8075,-0.63184
knm,Kanamarí,-68.7678,-6.45399
gan,Gan Chinese,115.16585,27.98958
kno,Kono,-10.92143,8.67039
knp,Kwanja,11.69315,6.30293
knq,Kintaq,101.1587,5.61042
knr,Kaningra,143.1918,-4.49681
kns,Kensiu,100.89167,5.93248
knt,Panoan Katukína,-71.56151,-7.97456
knu,Kono,-8.25793,7.85002
knv,Tabo,143.30513,-8.09387
knw,Kung-Ekoka,18.0309,-19.45604
knx,Kendayan,109.58906,0.29138
kny,Kanyok,23.61298,-7.31878
knz,Kalamsé,-3.10033,13.61057
koa,Konomala,152.87049,-4.16184
kob,Kohoroxitari,-67.64978,1.31875
koc,Kpati,10.1129,7.70605
kod,Kodi,119.11429,-9.6373
koe,Kacipo-Balesi,34.76874,6.21223
kof,Kubi,10.27461,10.62742
kog,Cogui,-73.80426,10.94849
koh,Koyo,15.75083,-0.69688
koi,Komi-Permyak,54.79589,59.66024
koj,Sara Dunjo,19.94459,8.99175
xbi,Kombio,142.69357,-3.48467
kol,Kol,151.58274,-5.21042
xom,Komo,34.04022,9.18635
koo,Konjo,29.97224,0.2379
kop,Kwato,145.62866,-5.53799
koq,Kota,13.168,-0.71089
ksh,Kolsch,6.927,50.947
xon,Konkomba,0.0426,9.93574
kot,Lagwan,14.84748,11.7185
kou,Koke,18.41213,10.68288
kov,Kudu-Camo,9.07725,11.08192
kow,Kugama,12.12947,8.91972
kox,Coxima,-72.08332,6.08332
koy,Koyukon,-154.22852,65.60927
koz,Korak,145.51352,-4.5998
kpa,Kutto,11.49535,10.70744
kpb,Mullu Kurumba,76.7,11.29
kpc,Curripaco,-68.62659,2.51191
kpd,Koba,134.60959,-6.47901
xpe,Liberia Kpelle,-9.96128,6.92048
kpf,Komba,147.27997,-6.16163
kpg,Kapingamarangi,158.20246,6.88727
knc,Central Kanuri,12.81894,12.27421
kpi,Kofei,136.7902,-2.33349
kpj,Karajá,-50.34918,-11.18812
kpk,Kpan,10.16422,7.58343
kpl,Kpala,20.31083,4.51093
kpm,Koho,108.05721,11.64436
kpn,Kepkiriwat,-61.246,-11.663
kpo,Ikposo,0.83312,7.44776
kpp,Paku Karen,97.12034,18.81375
kpq,Korupun-Sela,139.67832,-4.53497
kpr,Korafe,149.26655,-9.07
kps,Tehit,131.98485,-1.51049
kpt,Karata,46.31511,42.65005
kpu,Kafoa,124.44624,-8.36572
kpv,Komi-Zyrian,54.94599,64.05268
kpw,Kobon,144.45995,-5.16446
kpx,Mountain Koiali,147.38403,-9.06973
kpy,Koryak,166.69474,63.89771
kpz,Kupsabiny,34.59914,1.33197
kqa,Mum,145.05864,-4.83462
kqb,Kovai,147.86159,-5.61712
kqc,Doromu,147.9855,-9.56687
kqd,Koy Sanjaq Surat,44.63646,36.04511
kqe,Kalagan,125.32763,6.8126
kqf,Kakabai,150.02702,-10.29763
kqg,Khe,-4.24384,9.79704
kqh,Kisankasa,35.6751,-8.5411
kqi,Koitabu,147.07916,-9.36877
kqj,Koromira,155.74205,-6.39399
kqk,Kotafon Gbe,1.72346,6.64027
kql,Kyenele,143.85512,-4.66964
kqm,Khisa,-3.77644,9.68062
kqn,Kaonde,25.52693,-13.17589
kqo,Eastern Krahn,-7.85454,5.83555
kqp,Kimré,16.94232,9.42071
kqq,Krenak,-41.22993,-18.99884
kqr,Kimaragang,116.95983,6.61982
kqs,Northern Kissi,-10.20533,8.87056
kqt,Klias River Kadazan,115.58186,5.39453
kqu,Seroa,22.00209,-33.03859
kqv,Okolod,115.96017,4.18179
kqw,Kandas,152.7808,-4.3652
kqx,Mser,14.9531,12.00059
kqy,Koorete,37.86789,5.80545
kqz,Korana,19.77108,-30.42065
kra,Kumhali,84.13573,27.82967
krb,Karkin,-122.167,40.56
krc,Karachay-Balkar,42.26059,43.56504
krd,Kairui-Midiki,126.05874,-8.74034
kre,Kreen-Akarore,-50.04038,-5.60817
krf,Koro,167.46691,-14.29428
krg,North Korowai,140.04726,-5.26952
krh,Kurama,7.93507,10.47663
kri,Krio,-13.13667,8.30785
krj,Kinaray-A,122.2969,10.81307
krk,Kerek,175.06969,62.17769
krl,Karelian,31.80202,64.4256
krm,Krim,-11.83935,7.24116
krn,Sapo,-8.49229,5.69555
ksi,Krisa,141.30335,-2.80084
krp,Korop,8.76496,5.17972
krq,Krui,104.08937,-5.16158
krr,Kru'ng 2,106.76134,13.56989
krs,Gbaya,25.51728,8.43391
krt,Tumari Kanuri,13.15705,14.25844
tja,Tajuasohn,-8.98904,5.50685
krv,Kravet,106.58579,14.17964
krw,Western Krahn,-8.38393,5.72387
krx,Karon,-16.70419,12.82945
kry,Kryts,48.18457,41.18107
krz,Sota Kanum,140.96896,-8.40452
ksa,Shuwa-Zamani,8.23505,10.36283
ksb,Shambala,38.29111,-4.66153
ksc,Southern Kalinga,121.06787,17.29358
ksd,Kuanua,152.1136,-4.30986
kse,Kuni,146.87435,-8.66368
ksf,Bafia,11.0982,4.72603
ksg,Kusaghe,157.46268,-8.04056
kas,Kashmiri,74.87589,33.99807
kos,Kosraean,162.97022,5.32354
ksj,Uare,147.68747,-9.69571
kum,Kumyk,47.32625,42.88799
ksl,Kumalu,146.57028,-7.1135
ksm,Kumba,12.04155,8.82122
ksn,Kasiguranin,122.11786,16.1881
kso,Kofa,12.87572,9.76068
ksp,Kaba,16.77407,7.4508
ksq,Kwaami,11.01919,10.41412
ksr,Borong,147.511,-6.56688
kss,Southern Kisi,-10.18287,8.40131
kst,Winyé,-2.97518,11.82394
ksu,Khamyang,93.99325,26.88946
ksv,Kusu,25.2923,-3.61459
ksw,S'gaw Karen,97.50115,17.81928
ksx,Kedang,123.76988,-8.23039
ksy,Kharia Thar,83.799,22.24496
ksz,Koraku,83.84537,23.57571
kta,Katua,108.29295,14.89712
ktb,Kambaata,37.90877,7.37582
ktc,Kholok,10.96711,9.33645
ktd,Kokata,136.81262,-31.20523
kte,Nubri,84.77716,28.50918
ktf,Kwami,27.46332,-1.53712
ktg,Kalkutung,146.00307,-23.49886
kth,Karanga,20.6354,13.1748
kti,North Muyu,140.83996,-5.55319
ktj,Plapo Krumen,-7.30644,4.56109
ktk,Kaniet,145.08559,-1.51777
ktl,Koroshi,53.008,29.441
ktm,Kurti,147.03608,-2.01187
ktn,Karitiâna,-64.15219,-9.37937
kto,Kuot,151.53735,-3.06952
ktp,Kaduo,101.87145,22.19691
ktq,Katabaga,121.54387,17.95094
ktr,Kota Marudu Tinagas,116.94601,6.377
kts,South Muyu,140.8149,-6.01385
ktt,Ketum,140.60387,-5.34647
ktu,Kituba,17.15479,-2.29601
ktv,Eastern Katu,107.64367,15.85534
ktw,Kato,-123.43244,39.70019
ktx,Kaxararí,-66.33286,-9.47288
kty,Kango,24.82023,3.47633
ktz,Ju/'hoan,21.65872,-19.62206
kvn,Border Kuna,-76.91261,7.86371
kub,Kutep,10.03107,7.15656
gwi,Gwich'in,-139.80541,67.63566
